Title,ActualPrice,Status,MinPrice,Description,Street,PostalCode,State,StateCode,City,Latitude,Longitude,Url
350-E-30th-St-Apt-4R_New-York_NY_10016_M47066-62841,$785000,for_sale,,"baths_consolidated: 1, type: condos, sub_type: condo, sold_date: 1989-01-13",350 E 30th St Apt 4R,10016,New York,NY,New York,40.741099,-73.975917,https://www.realtor.com/realestateandhomes-detail/350-E-30th-St-Apt-4R_New-York_NY_10016_M47066-62841
216-E-30th-St_New-York_NY_10016_M45996-35054,$8250000,for_sale,,"baths_consolidated: 4.5, type: townhomes, sub_type: townhouse, sold_date: 2015-12-09",216 E 30th St,10016,New York,NY,New York,40.742667,-73.979266,https://www.realtor.com/realestateandhomes-detail/216-E-30th-St_New-York_NY_10016_M45996-35054
71-Park-Ave-10AB_New-York_NY_10016_M43757-66368,$5000000,for_sale,,"baths_consolidated: 3, type: condos, sub_type: condo",71 Park Ave # 10AB,10016,New York,NY,New York,40.749727,-73.978915,https://www.realtor.com/realestateandhomes-detail/71-Park-Ave-10AB_New-York_NY_10016_M43757-66368
330-E-38th-St-Apt-44L_New-York_NY_10016_M38504-96705,$1488000,for_sale,,"baths_consolidated: 2, type: condos, sub_type: condo, sold_date: 2014-11-10",330 E 38th St Apt 44L,10016,New York,NY,New York,40.746328,-73.972718,https://www.realtor.com/realestateandhomes-detail/330-E-38th-St-Apt-44L_New-York_NY_10016_M38504-96705
300-E-33rd-St-Apt-5D_New-York_NY_10016_M30660-16424,$650000,for_sale,,"baths_consolidated: 1, type: condos, sub_type: condo, sold_date: 1991-11-01",300 E 33rd St Apt 5D,10016,New York,NY,Manhattan,40.742673,-73.975706,https://www.realtor.com/realestateandhomes-detail/300-E-33rd-St-Apt-5D_New-York_NY_10016_M30660-16424
136-E-36th-St-Apt-2C_New-York_NY_10016_M33229-01204,$550000,for_sale,,"baths_consolidated: 1, type: coop, sub_type: co_op, sold_date: 2011-08-03",136 E 36th St Apt 2C,10016,New York,NY,New York,40.747404,-73.978647,https://www.realtor.com/realestateandhomes-detail/136-E-36th-St-Apt-2C_New-York_NY_10016_M33229-01204
123-E-35th-St_New-York_NY_10016_M31798-36760,$29200000,for_sale,,"baths_consolidated: 10.5, type: townhomes, sub_type: townhouse, sold_date: 1984-11-20",123 E 35th St,10016,New York,NY,New York,40.747485,-73.979642,https://www.realtor.com/realestateandhomes-detail/123-E-35th-St_New-York_NY_10016_M31798-36760
45-Park-Ave-PK1_New-York_NY_10016_M92217-20375,$225000,for_sale,,"type: condos, sub_type: condo",45 Park Ave Unit PK1,10016,New York,NY,New York,40.748631,-73.979713,https://www.realtor.com/realestateandhomes-detail/45-Park-Ave-PK1_New-York_NY_10016_M92217-20375
39-E-29th-St-Apt-11E_New-York_NY_10016_M48916-38171,$899000,for_sale,$51000,"baths_consolidated: 1, type: apartment, sub_type: condo, sold_date: 2008-11-12",39 E 29th St Apt 11E,10016,New York,NY,New York,40.744312,-73.984222,https://www.realtor.com/realestateandhomes-detail/39-E-29th-St-Apt-11E_New-York_NY_10016_M48916-38171
128-E-38th-St_New-York_NY_10016_M47820-59363,$4680000,for_sale,$120000,"baths_consolidated: 3.5, type: townhomes, sub_type: townhouse, sold_date: 2016-05-18",128 E 38th St,10016,New York,NY,New York,40.748995,-73.978364,https://www.realtor.com/realestateandhomes-detail/128-E-38th-St_New-York_NY_10016_M47820-59363
209-E-31st-St_New-York_NY_10016_M34427-31934,$8950000,for_sale,$300000,"baths_consolidated: 6, type: townhomes, sub_type: townhouse",209 E 31st St,10016,New York,NY,New York,40.743754,-73.978759,https://www.realtor.com/realestateandhomes-detail/209-E-31st-St_New-York_NY_10016_M34427-31934
244-Madison-Ave_New-York_NY_10016_M93450-64719,$2495000,for_sale,,"baths_consolidated: 2, type: coop, sub_type: co_op",244 Madison Ave # Uph,10016,New York,NY,New York,40.750202,-73.981522,https://www.realtor.com/realestateandhomes-detail/244-Madison-Ave_New-York_NY_10016_M93450-64719
240-E-29th-St_New-York_NY_10016_M96986-23456,$2500000,for_sale,,"baths_consolidated: 4, type: townhomes, sub_type: townhouse",240 E 29th St,10016,New York,NY,New York,40.741722,-73.978683,https://www.realtor.com/realestateandhomes-detail/240-E-29th-St_New-York_NY_10016_M96986-23456
300-E-40th-St-Apt-28B_New-York_NY_10016_M47277-71779,$2150000,for_sale,,"baths_consolidated: 2, type: single_family, sold_date: 2018-06-01",300 E 40th St Apt 28B,10016,New York,NY,New York,40.748161,-73.972664,https://www.realtor.com/realestateandhomes-detail/300-E-40th-St-Apt-28B_New-York_NY_10016_M47277-71779
300-E-33rd-St-Apt-20L_New-York_NY_10016_M38910-19306,$899000,for_sale,,"baths_consolidated: 1, type: condos, sub_type: condo, sold_date: 1985-04-25",300 E 33rd St Apt 20L,10016,New York,NY,New York,40.742673,-73.975706,https://www.realtor.com/realestateandhomes-detail/300-E-33rd-St-Apt-20L_New-York_NY_10016_M38910-19306
132-E-35th-St-L10_New-York_NY_10016_M39115-01022,$825000,for_sale,,"baths_consolidated: 1, type: coop, sub_type: co_op, sold_date: 2012-06-07",132 E 35th St Unit 10L,10016,New York,NY,New York,40.746873,-73.979693,https://www.realtor.com/realestateandhomes-detail/132-E-35th-St-L10_New-York_NY_10016_M39115-01022
153-E-30th-St_New-York_NY_10016_M92284-87126,$9450000,for_sale,,"baths_consolidated: 5, type: multi_family, sold_date: 1983-09-14",153 E 30th St,10016,New York,NY,New York,40.743606,-73.980329,https://www.realtor.com/realestateandhomes-detail/153-E-30th-St_New-York_NY_10016_M92284-87126
130-E-38th-St_New-York_NY_10016_M43174-94604,$4875000,for_sale,,"baths_consolidated: 3, type: townhomes, sub_type: townhouse, sold_date: 2017-05-19",130 E 38th St,10016,New York,NY,New York,40.748968,-73.978301,https://www.realtor.com/realestateandhomes-detail/130-E-38th-St_New-York_NY_10016_M43174-94604
232-E-32nd-St-Unit-Townhouse_New-York_NY_10016_M91609-11214,$4200000,for_sale,$300000,"baths_consolidated: 4, type: townhomes, sub_type: townhouse",232 E 32nd St Unit Townhouse,10016,New York,NY,Manhattan,40.743752,-73.977905,https://www.realtor.com/realestateandhomes-detail/232-E-32nd-St-Unit-Townhouse_New-York_NY_10016_M91609-11214
200-E-36th-St-Apt-17G_New-York_NY_10016_M35453-94319,$560000,for_sale,,"baths_consolidated: 1, type: coop, sub_type: co_op, sold_date: 2020-01-29",200 E 36th St Apt 17G,10016,New York,NY,New York,40.746705,-73.976954,https://www.realtor.com/realestateandhomes-detail/200-E-36th-St-Apt-17G_New-York_NY_10016_M35453-94319
226-E-27th-St-Apt-3D_New-York_NY_10016_M90798-09135,$305000,for_sale,,"baths_consolidated: 1, type: coop, sub_type: co_op",226 E 27th St Apt 3D,10016,New York,NY,Manhattan,40.740746,-73.98011,https://www.realtor.com/realestateandhomes-detail/226-E-27th-St-Apt-3D_New-York_NY_10016_M90798-09135
330-E-38th-St-Apt-41N_New-York_NY_10016_M39137-53457,$2649000,for_sale,$50000,"baths_consolidated: 3, type: condos, sub_type: condo, sold_date: 1988-12-15",330 E 38th St Apt 41N,10016,New York,NY,New York,40.746328,-73.972718,https://www.realtor.com/realestateandhomes-detail/330-E-38th-St-Apt-41N_New-York_NY_10016_M39137-53457
111-E-36th-St-5AB_New-York_NY_10016_M94468-44638,$1274000,for_sale,,"baths_consolidated: 2, type: coop, sub_type: co_op",111 E 36th St # 5AB,10016,New York,NY,New York,40.748211,-73.979538,https://www.realtor.com/realestateandhomes-detail/111-E-36th-St-5AB_New-York_NY_10016_M94468-44638
10-Park-Ave-A25_New-York_NY_10016_M46980-81676,$2995000,for_sale,$280000,"baths_consolidated: 2, type: coop, sub_type: co_op, sold_date: 2021-08-04",10 Park Ave Ph 25A,10016,New York,NY,Manhattan,40.747494,-73.981495,https://www.realtor.com/realestateandhomes-detail/10-Park-Ave-A25_New-York_NY_10016_M46980-81676
217-E-30th-St-Apt-1_New-York_NY_10016_M90263-63790,$3890000,for_sale,$600000,"baths_consolidated: 7, type: multi_family",217 E 30th St Apt 1,10016,New York,NY,New York,40.742954,-73.97908,https://www.realtor.com/realestateandhomes-detail/217-E-30th-St-Apt-1_New-York_NY_10016_M90263-63790
112-E-35th-St-Unit-Townhouse_New-York_NY_10016_M38860-63330,$5500000,for_sale,$990000,"baths_consolidated: 6, type: townhomes, sub_type: townhouse",112 E 35th St Unit Townhouse,10016,New York,NY,New York,40.747243,-73.980226,https://www.realtor.com/realestateandhomes-detail/112-E-35th-St-Unit-Townhouse_New-York_NY_10016_M38860-63330
35-Park-Ave-Apt-18A_New-York_NY_10016_M96611-99767,$1150000,for_sale,,"baths_consolidated: 2, type: coop, sub_type: co_op",35 Park Avenue Ave Unit 18A,10016,New York,NY,Manhattan,40.74802,-73.980324,https://www.realtor.com/realestateandhomes-detail/35-Park-Ave-Apt-18A_New-York_NY_10016_M96611-99767
138-E-36th-St-Apt-8C_New-York_NY_10016_M32749-53140,$1350000,for_sale,,"baths_consolidated: 2, type: coop, sub_type: co_op",138 E 36th St Apt 8C,10016,New York,NY,New York,40.747279,-73.978408,https://www.realtor.com/realestateandhomes-detail/138-E-36th-St-Apt-8C_New-York_NY_10016_M32749-53140
368-3rd-Ave-Ph-B_New-York_NY_10016_M91178-90314,$9995000,for_sale,$1000000,"baths_consolidated: 3.5, type: condos, sub_type: condo",368 Third Ave Ph B,10016,New York,NY,Manhattan,40.741268,-73.981804,https://www.realtor.com/realestateandhomes-detail/368-3rd-Ave-Ph-B_New-York_NY_10016_M91178-90314
139-E-33rd-St-Ph-F_New-York_NY_10016_M97605-93740,$575000,for_sale,,"baths_consolidated: 1, type: coop, sub_type: co_op, sold_date: 2019-08-12",139 E 33rd St Ph F,10016,New York,NY,Manhattan,40.746076,-73.980505,https://www.realtor.com/realestateandhomes-detail/139-E-33rd-St-Ph-F_New-York_NY_10016_M97605-93740
277-5th-Ave-B46_New-York_NY_10016_M38058-22450,$9995000,for_sale,,"baths_consolidated: 3.5, type: condos, sub_type: condo",277 Fifth Ave Unit 46B,10016,New York,NY,New York,40.745568,-73.986248,https://www.realtor.com/realestateandhomes-detail/277-5th-Ave-B46_New-York_NY_10016_M38058-22450
218-E-31st-St_New-York_NY_10016_M96326-60677,$4995000,for_sale,,"baths_consolidated: 6, type: townhomes, sub_type: townhouse",218 E 31st St,10016,New York,NY,New York,40.743263,-73.978767,https://www.realtor.com/realestateandhomes-detail/218-E-31st-St_New-York_NY_10016_M96326-60677
630-1st-Ave-Apt-33L_New-York_NY_10016_M41359-83813,$1849000,for_sale,,"baths_consolidated: 2, type: condos, sub_type: condo, sold_date: 2013-07-31",630 First Ave Unit 33L,10016,New York,NY,Manhattan,40.745157,-73.971836,https://www.realtor.com/realestateandhomes-detail/630-1st-Ave-Apt-33L_New-York_NY_10016_M41359-83813
250-E-40th-St-Apt-35B_New-York_NY_10016_M34713-15740,$1375000,for_sale,,"baths_consolidated: 2, type: condos, sub_type: condo, sold_date: 2023-04-04",250 E 40th St Apt 35B,10016,New York,NY,New York,40.748541,-73.973651,https://www.realtor.com/realestateandhomes-detail/250-E-40th-St-Apt-35B_New-York_NY_10016_M34713-15740
211-Madison-Ave-B26_New-York_NY_10016_M40606-89765,$2995000,for_sale,$300000,"baths_consolidated: 3, type: condos, sub_type: condo",211 Madison Ave Unit 26B,10016,New York,NY,Manhattan,40.748671,-73.981964,https://www.realtor.com/realestateandhomes-detail/211-Madison-Ave-B26_New-York_NY_10016_M40606-89765
241-5th-Ave-Ph-15_New-York_NY_10016_M36513-36837,$5900000,for_sale,$200000,"baths_consolidated: 3, type: condos, sub_type: condo, sold_date: 2013-12-10",241 Fifth Ave Ph 15,10016,New York,NY,New York,40.744213,-73.987244,https://www.realtor.com/realestateandhomes-detail/241-5th-Ave-Ph-15_New-York_NY_10016_M36513-36837
251-E-32nd-St-2D_New-York_NY_10016_M91507-67182,$295000,for_sale,$80000,"baths_consolidated: 1, type: coop, sub_type: co_op",251 E 32nd St Unit 2D,10016,New York,NY,New York,40.743851,-73.976967,https://www.realtor.com/realestateandhomes-detail/251-E-32nd-St-2D_New-York_NY_10016_M91507-67182
330-E-38th-St-Apt-18B_New-York_NY_10016_M30401-93052,$999999,for_sale,,"baths_consolidated: 2, type: condos, sub_type: condo, sold_date: 2000-01-21",330 E 38th St Apt 18B,10016,New York,NY,New York,40.746328,-73.972718,https://www.realtor.com/realestateandhomes-detail/330-E-38th-St-Apt-18B_New-York_NY_10016_M30401-93052
105-E-29th-St-Apt-4_New-York_NY_10016_M40824-86672,$5750000,for_sale,,"baths_consolidated: 2.5, type: coop, sub_type: co_op, sold_date: 2014-05-08",105 E 29th St Apt 4,10016,New York,NY,New York,40.743873,-73.982878,https://www.realtor.com/realestateandhomes-detail/105-E-29th-St-Apt-4_New-York_NY_10016_M40824-86672
325-5th-Ave-Apt-18C_New-York_NY_10016_M31066-33701,$1750000,for_sale,$200000,"baths_consolidated: 2, type: condos, sub_type: condo, sold_date: 2017-02-16",325 Fifth Ave Apt 18C,10016,New York,NY,New York,40.74733,-73.984857,https://www.realtor.com/realestateandhomes-detail/325-5th-Ave-Apt-18C_New-York_NY_10016_M31066-33701
310-Lexington-Ave-Apt-1F_New-York_NY_10016_M98842-50341,$599000,for_sale,$50000,"baths_consolidated: 1, type: coop, sub_type: co_op",310 Lexington Ave Apt 1F,10016,New York,NY,Manhattan,40.748775,-73.978348,https://www.realtor.com/realestateandhomes-detail/310-Lexington-Ave-Apt-1F_New-York_NY_10016_M98842-50341
220-Madison-Ave-Apt-9N_New-York_NY_10016_M47386-11613,$650000,for_sale,,"baths_consolidated: 1, type: coop, sub_type: co_op, sold_date: 2015-06-30",220 Madison Ave Apt 9N,10016,New York,NY,Manhattan,40.74956,-73.982064,https://www.realtor.com/realestateandhomes-detail/220-Madison-Ave-Apt-9N_New-York_NY_10016_M47386-11613
166-E-35th-St-Apt-16A_New-York_NY_10016_M44497-93040,$325000,for_sale,$25000,"baths_consolidated: 1, type: coop, sub_type: co_op, sold_date: 2004-10-13",166 E 35th St Apt 16A,10016,New York,NY,Manhattan,40.746354,-73.978047,https://www.realtor.com/realestateandhomes-detail/166-E-35th-St-Apt-16A_New-York_NY_10016_M44497-93040
23-Park-Ave-4NS_New-York_NY_10016_M46011-04137,$4500000,for_sale,,"baths_consolidated: 3, type: coop, sub_type: co_op, sold_date: 2016-01-12",23 Park Ave Unit 4NS,10016,New York,NY,Manhattan,40.747722,-73.980361,https://www.realtor.com/realestateandhomes-detail/23-Park-Ave-4NS_New-York_NY_10016_M46011-04137
45-Park-Ave-Apt-1501_New-York_NY_10016_M43720-83921,$2350000,for_sale,,"baths_consolidated: 2.5, type: condos, sub_type: condo, sold_date: 2008-01-18",45 Park Ave Apt 1501,10016,New York,NY,New York,40.748699,-73.979851,https://www.realtor.com/realestateandhomes-detail/45-Park-Ave-Apt-1501_New-York_NY_10016_M43720-83921
50-Park-Ave-Apt-14D_New-York_NY_10016_M97221-83140,$565000,for_sale,,"baths_consolidated: 1, type: coop, sub_type: co_op",50 Park Ave Apt 14D,10016,New York,NY,New York,40.749264,-73.980331,https://www.realtor.com/realestateandhomes-detail/50-Park-Ave-Apt-14D_New-York_NY_10016_M97221-83140
208-E-28th-St-Apt-2A_New-York_NY_10016_M36051-27252,$650000,for_sale,,"baths_consolidated: 1, type: coop, sub_type: co_op, sold_date: 2014-07-11",208 E 28th St Apt 2A,10016,New York,NY,New York,40.741496,-73.980316,https://www.realtor.com/realestateandhomes-detail/208-E-28th-St-Apt-2A_New-York_NY_10016_M36051-27252
50-Park-Ave-Apt-4A_New-York_NY_10016_M41946-32429,$725000,for_sale,$25000,"baths_consolidated: 1, type: coop, sub_type: co_op, sold_date: 2007-08-14",50 Park Ave Apt 4A,10016,New York,NY,Manhattan,40.749365,-73.980346,https://www.realtor.com/realestateandhomes-detail/50-Park-Ave-Apt-4A_New-York_NY_10016_M41946-32429
333-E-34th-St-4DE_New-York_NY_10016_M97846-35184,$2700000,for_sale,,"baths_consolidated: 3, type: condos, sub_type: condo",333 E 34th St Unit 4DE,10016,New York,NY,New York,40.744328,-73.97419,https://www.realtor.com/realestateandhomes-detail/333-E-34th-St-4DE_New-York_NY_10016_M97846-35184
132-E-35th-St-L14_New-York_NY_10016_M41288-73385,$699000,for_sale,,"baths_consolidated: 1, type: coop, sub_type: co_op",132 E 35th St Unit 14L,10016,New York,NY,Manhattan,40.746873,-73.979693,https://www.realtor.com/realestateandhomes-detail/132-E-35th-St-L14_New-York_NY_10016_M41288-73385
150-E-37th-St-Apt-4B_New-York_NY_10016_M31803-58483,$540000,for_sale,,"baths_consolidated: 1, type: condos, sub_type: condo, sold_date: 1986-03-21",150 E 37th St Apt 4B,10016,New York,NY,New York,40.747786,-73.977692,https://www.realtor.com/realestateandhomes-detail/150-E-37th-St-Apt-4B_New-York_NY_10016_M31803-58483
333-E-30th-St-Apt-8L_New-York_NY_10016_M30872-30192,$1450000,for_sale,$50000,"baths_consolidated: 2, type: condos, sub_type: condo, sold_date: 1982-03-02",333 E 30th St Apt 8L,10016,New York,NY,New York,40.742673,-73.975706,https://www.realtor.com/realestateandhomes-detail/333-E-30th-St-Apt-8L_New-York_NY_10016_M30872-30192
225-E-34th-St-Apt-11J_New-York_NY_10016_M46268-86393,$1250000,for_sale,,"baths_consolidated: 1, type: condos, sub_type: condo, sold_date: 2018-08-02",225 E 34th St Apt 11J,10016,New York,NY,Manhattan,40.745399,-73.976944,https://www.realtor.com/realestateandhomes-detail/225-E-34th-St-Apt-11J_New-York_NY_10016_M46268-86393
211-Madison-Ave-B16_New-York_NY_10016_M40603-17105,$2399000,for_sale,,"baths_consolidated: 2.5, type: condos, sub_type: condo, sold_date: 2016-08-02",211 Madison Ave Unit 16B,10016,New York,NY,New York,40.748671,-73.981964,https://www.realtor.com/realestateandhomes-detail/211-Madison-Ave-B16_New-York_NY_10016_M40603-17105
333-E-34th-St-Rm-1D_New-York_NY_10016_M94668-87355,$480000,for_sale,,"baths_consolidated: 1, type: condos, sub_type: condo",333 E 34th St Rm 1D,10016,New York,NY,New York,40.744328,-73.97419,https://www.realtor.com/realestateandhomes-detail/333-E-34th-St-Rm-1D_New-York_NY_10016_M94668-87355
140-E-40th-St-Apt-10A_New-York_NY_10016_M91943-45562,$535000,for_sale,$24000,"baths_consolidated: 1, type: coop, sub_type: co_op",140 E 40th St Apt 10A,10016,New York,NY,New York,40.749813,-73.976425,https://www.realtor.com/realestateandhomes-detail/140-E-40th-St-Apt-10A_New-York_NY_10016_M91943-45562
10-Park-Ave-11K_New-York_NY_10016_M92265-78266,$595000,for_sale,$30000,"baths_consolidated: 1, type: coop, sub_type: co_op",10 Park Ave Unit 11K,10016,New York,NY,New York,40.747494,-73.981499,https://www.realtor.com/realestateandhomes-detail/10-Park-Ave-11K_New-York_NY_10016_M92265-78266
425-5th-Ave-Apt-23B_New-York_NY_10016_M48159-44223,$1495000,for_sale,,"baths_consolidated: 2, type: condos, sub_type: condo, sold_date: 2004-07-05",425 Fifth Ave Unit 23B,10016,New York,NY,New York,40.750965,-73.982198,https://www.realtor.com/realestateandhomes-detail/425-5th-Ave-Apt-23B_New-York_NY_10016_M48159-44223
157-E-32nd-St-Apt-8A_New-York_NY_10016_M31777-49867,$895000,for_sale,,"baths_consolidated: 1, type: condos, sub_type: condo, sold_date: 2022-07-05",157 E 32nd St Apt 8A,10016,New York,NY,New York,40.744985,-73.979487,https://www.realtor.com/realestateandhomes-detail/157-E-32nd-St-Apt-8A_New-York_NY_10016_M31777-49867
11-E-36th-St-Ste-404_New-York_NY_10016_M40149-74880,$848880,for_sale,,"baths_consolidated: 1, type: condos, sub_type: condo, sold_date: 2009-09-11",11 E 36th St Ste 404,10016,New York,NY,Manhattan,40.749634,-73.982578,https://www.realtor.com/realestateandhomes-detail/11-E-36th-St-Ste-404_New-York_NY_10016_M40149-74880
137-E-36th-St-C11_New-York_NY_10016_M33096-71795,$825000,for_sale,,"baths_consolidated: 1, type: coop, sub_type: co_op, sold_date: 2018-12-21",137 E 36th St Unit 11C,10016,New York,NY,Manhattan,40.747758,-73.978376,https://www.realtor.com/realestateandhomes-detail/137-E-36th-St-C11_New-York_NY_10016_M33096-71795
343-E-30th-St-Apt-15J_New-York_NY_10016_M36323-04612,$1695000,for_sale,,"baths_consolidated: 2, type: condos, sub_type: condo, sold_date: 2018-12-04",343 E 30th St Apt 15J,10016,New York,NY,Manhattan,40.742673,-73.975706,https://www.realtor.com/realestateandhomes-detail/343-E-30th-St-Apt-15J_New-York_NY_10016_M36323-04612
10-Park-Ave-C17_New-York_NY_10016_M30022-18504,$550000,for_sale,,"baths_consolidated: 1, type: coop, sub_type: co_op, sold_date: 2019-07-16",10 Park Ave Unit 17C,10016,New York,NY,New York,40.747494,-73.981495,https://www.realtor.com/realestateandhomes-detail/10-Park-Ave-C17_New-York_NY_10016_M30022-18504
201-E-28th-St-E7_New-York_NY_10016_M42630-29252,$969000,for_sale,,"baths_consolidated: 1, type: coop, sub_type: co_op, sold_date: 2015-11-10",201 E 28th St Unit 7E,10016,New York,NY,New York,40.742013,-73.980276,https://www.realtor.com/realestateandhomes-detail/201-E-28th-St-E7_New-York_NY_10016_M42630-29252
206-E-30th-St_New-York_NY_10016_M46022-30522,$4935000,for_sale,$265000,"baths_consolidated: 4.5+, type: townhomes, sub_type: townhouse, sold_date: 1970-10-14",206 E 30th St,10016,New York,NY,Manhattan,40.742792,-73.979565,https://www.realtor.com/realestateandhomes-detail/206-E-30th-St_New-York_NY_10016_M46022-30522
115-E-36th-St-Unit-Parlor_New-York_NY_10016_M46917-35612,$2000000,for_sale,,"baths_consolidated: 2, type: coop, sub_type: co_op",115 E 36th St Unit Parlor,10016,New York,NY,New York,40.748175,-73.979366,https://www.realtor.com/realestateandhomes-detail/115-E-36th-St-Unit-Parlor_New-York_NY_10016_M46917-35612
225-E-36th-St-Apt-2H_New-York_NY_10016_M44664-05427,$420000,for_sale,,"baths_consolidated: 1, type: coop, sub_type: co_op",225 E 36th St Apt 2H,10016,New York,NY,New York,40.746624,-73.975975,https://www.realtor.com/realestateandhomes-detail/225-E-36th-St-Apt-2H_New-York_NY_10016_M44664-05427
330-E-38th-St-Apt-12N_New-York_NY_10016_M36101-34494,$2300000,for_sale,$100000,"baths_consolidated: 3, type: condos, sub_type: condo, sold_date: 2005-05-04",330 E 38th St Apt 12N,10016,New York,NY,New York,40.746328,-73.972718,https://www.realtor.com/realestateandhomes-detail/330-E-38th-St-Apt-12N_New-York_NY_10016_M36101-34494
105-E-38th-St-Apt-6C_New-York_NY_10016_M45135-55067,$899000,for_sale,,"baths_consolidated: 1, type: coop, sub_type: co_op, sold_date: 2004-10-01",105 E 38th St Apt 6C,10016,New York,NY,New York,40.749519,-73.978722,https://www.realtor.com/realestateandhomes-detail/105-E-38th-St-Apt-6C_New-York_NY_10016_M45135-55067
80-Park-Ave-10LM_New-York_NY_10016_M99419-18838,$1650000,for_sale,,"baths_consolidated: 2.5, type: condos, sub_type: condo",80 Park Ave Unit 10LM,10016,New York,NY,Manhattan,40.750198,-73.979607,https://www.realtor.com/realestateandhomes-detail/80-Park-Ave-10LM_New-York_NY_10016_M99419-18838
105-E-38th-St-Unit-Phduplex_New-York_NY_10016_M90377-51011,$2495000,for_sale,,"baths_consolidated: 4.5, type: coop, sub_type: co_op",105 E 38th St Unit Phduplex,10016,New York,NY,Manhattan,40.749413,-73.978798,https://www.realtor.com/realestateandhomes-detail/105-E-38th-St-Unit-Phduplex_New-York_NY_10016_M90377-51011
240-E-35th-St-Apt-8A_New-York_NY_10016_M31423-06595,$600000,for_sale,,"baths_consolidated: 1, type: coop, sub_type: co_op, sold_date: 2005-09-21",240 E 35th St Apt 8A,10016,New York,NY,Manhattan,40.745545,-73.976203,https://www.realtor.com/realestateandhomes-detail/240-E-35th-St-Apt-8A_New-York_NY_10016_M31423-06595
240-E-33rd-St-Unit-Townhouse_New-York_NY_10016_M90942-04113,$4695000,for_sale,,"baths_consolidated: 5.5, type: townhomes, sub_type: townhouse",240 E 33rd St Unit Townhouse,10016,New York,NY,Manhattan,40.744232,-73.977196,https://www.realtor.com/realestateandhomes-detail/240-E-33rd-St-Unit-Townhouse_New-York_NY_10016_M90942-04113
159-E-30th-St-Apt-3C_New-York_NY_10016_M31725-69901,$875000,for_sale,,"baths_consolidated: 1, type: condos, sub_type: condo, sold_date: 2006-01-25",159 E 30th St Apt 3C,10016,New York,NY,New York,40.743449,-73.980104,https://www.realtor.com/realestateandhomes-detail/159-E-30th-St-Apt-3C_New-York_NY_10016_M31725-69901
140-E-28th-St-Apt-10B_New-York_NY_10016_M42122-18805,$595000,for_sale,$70000,"baths_consolidated: 1, type: coop, sub_type: co_op, sold_date: 2005-07-27",140 E 28th St Apt 10B,10016,New York,NY,New York,40.742169,-73.981908,https://www.realtor.com/realestateandhomes-detail/140-E-28th-St-Apt-10B_New-York_NY_10016_M42122-18805
330-E-38th-St-Apt-14L_New-York_NY_10016_M40116-11896,$1399999,for_sale,,"baths_consolidated: 2, type: condos, sub_type: condo, sold_date: 2013-06-06",330 E 38th St Apt 14L,10016,New York,NY,New York,40.746328,-73.972718,https://www.realtor.com/realestateandhomes-detail/330-E-38th-St-Apt-14L_New-York_NY_10016_M40116-11896
10-Park-Ave-S8_New-York_NY_10016_M33015-73713,$465000,for_sale,$10000,"baths_consolidated: 1, type: coop, sub_type: co_op, sold_date: 2005-09-29",10 Park Ave Unit 8S,10016,New York,NY,New York,40.747494,-73.981495,https://www.realtor.com/realestateandhomes-detail/10-Park-Ave-S8_New-York_NY_10016_M33015-73713
225-E-34th-St-Apt-2G_New-York_NY_10016_M36349-22643,$1385000,for_sale,$10000,"baths_consolidated: 2, type: condos, sub_type: condo, sold_date: 2007-12-17",225 E 34th St Apt 2G,10016,New York,NY,New York,40.745399,-73.976944,https://www.realtor.com/realestateandhomes-detail/225-E-34th-St-Apt-2G_New-York_NY_10016_M36349-22643
220-Madison-Ave-Apt-11A_New-York_NY_10016_M49422-62990,$1695000,for_sale,,"baths_consolidated: 2, type: coop, sub_type: co_op, sold_date: 2015-09-23",220 Madison Ave Apt 11A,10016,New York,NY,New York,40.74956,-73.982064,https://www.realtor.com/realestateandhomes-detail/220-Madison-Ave-Apt-11A_New-York_NY_10016_M49422-62990
105-E-38th-St-Apt-8A_New-York_NY_10016_M47275-82119,$558000,for_sale,$37000,"baths_consolidated: 1, type: coop, sub_type: co_op, sold_date: 2017-12-07",105 E 38th St Apt 8A,10016,New York,NY,New York,40.749519,-73.978722,https://www.realtor.com/realestateandhomes-detail/105-E-38th-St-Apt-8A_New-York_NY_10016_M47275-82119
120-E-36th-St-Apt-6H_New-York_NY_10016_M94427-74742,$885000,for_sale,,"baths_consolidated: 2, type: coop, sub_type: co_op",120 E 36th St Apt 6H,10016,New York,NY,New York,40.747841,-73.979454,https://www.realtor.com/realestateandhomes-detail/120-E-36th-St-Apt-6H_New-York_NY_10016_M94427-74742
630-1st-Ave-Apt-4F_New-York_NY_10016_M31968-67296,$848800,for_sale,,"baths_consolidated: 1, type: condos, sub_type: condo, sold_date: 2021-09-21",630 First Ave Apt 4F,10016,New York,NY,New York,40.745157,-73.971836,https://www.realtor.com/realestateandhomes-detail/630-1st-Ave-Apt-4F_New-York_NY_10016_M31968-67296
225-E-34th-St-Apt-4I_New-York_NY_10016_M43609-04138,$1650000,for_sale,,"baths_consolidated: 2, type: condos, sub_type: condo, sold_date: 2008-02-28",225 E 34th St Apt 4I,10016,New York,NY,Manhattan,40.745399,-73.976944,https://www.realtor.com/realestateandhomes-detail/225-E-34th-St-Apt-4I_New-York_NY_10016_M43609-04138
16-Park-Ave-C8_New-York_NY_10016_M46990-30109,$530000,for_sale,$15000,"baths_consolidated: 1, type: coop, sub_type: co_op, sold_date: 2013-12-20",16 Park Ave # 8C,10016,New York,NY,New York,40.747731,-73.981286,https://www.realtor.com/realestateandhomes-detail/16-Park-Ave-C8_New-York_NY_10016_M46990-30109
330-E-38th-St-23OP_New-York_NY_10016_M96446-76635,$1599000,for_sale,$400999,"baths_consolidated: 2, type: condos, sub_type: condo, sold_date: 2005-04-15",330 E 38th St Unit 23OP,10016,New York,NY,Manhattan,40.74641,-73.9729,https://www.realtor.com/realestateandhomes-detail/330-E-38th-St-23OP_New-York_NY_10016_M96446-76635
105-E-38th-St-Apt-9_New-York_NY_10016_M38920-18455,$1895000,for_sale,,"baths_consolidated: 3, type: coop, sub_type: co_op",105 E 38th St Apt 9,10016,New York,NY,Manhattan,40.749413,-73.978798,https://www.realtor.com/realestateandhomes-detail/105-E-38th-St-Apt-9_New-York_NY_10016_M38920-18455
328-E-30th-St_New-York_NY_10016_M31777-71634,$5400000,for_sale,,"baths_consolidated: 2, type: townhomes, sub_type: townhouse",328 E 30th St,10016,New York,NY,New York,40.741527,-73.976565,https://www.realtor.com/realestateandhomes-detail/328-E-30th-St_New-York_NY_10016_M31777-71634
165-Lexington-Ave_New-York_NY_10016_M93712-56271,$800000,for_sale,,"type: condos, sub_type: condo, sold_date: 2023-04-21",165 Lexington Ave,10016,New York,NY,New York,40.743969,-73.981141,https://www.realtor.com/realestateandhomes-detail/165-Lexington-Ave_New-York_NY_10016_M93712-56271
120-E-36th-St-Ph-B_New-York_NY_10016_M95583-20531,$750000,for_sale,,"baths_consolidated: 1, type: coop, sub_type: co_op",120 E 36th St Ph B,10016,New York,NY,New York,40.747765,-73.979492,https://www.realtor.com/realestateandhomes-detail/120-E-36th-St-Ph-B_New-York_NY_10016_M95583-20531
325-5th-Ave-Apt-44B_New-York_NY_10016_M38960-50909,$2445000,for_sale,,"baths_consolidated: 2, type: condos, sub_type: condo, sold_date: 2012-07-20",325 Fifth Ave Unit 44B,10016,New York,NY,New York,40.74733,-73.984857,https://www.realtor.com/realestateandhomes-detail/325-5th-Ave-Apt-44B_New-York_NY_10016_M38960-50909
246-E-30th-St_New-York_NY_10016_M47404-23859,$3495000,for_sale,,"type: townhomes, sub_type: townhouse, sold_date: 1985-12-30",246 E 30th St,10016,New York,NY,New York,40.742272,-73.97829,https://www.realtor.com/realestateandhomes-detail/246-E-30th-St_New-York_NY_10016_M47404-23859
77-Park-Ave-C6_New-York_NY_10016_M41006-38855,$1200000,for_sale,,"baths_consolidated: 1.5, type: condos, sub_type: condo, sold_date: 1986-05-21",77 Park Ave Unit 6C,10016,New York,NY,Manhattan,40.74984,-73.978678,https://www.realtor.com/realestateandhomes-detail/77-Park-Ave-C6_New-York_NY_10016_M41006-38855
225-E-34th-St-Apt-8I_New-York_NY_10016_M31195-64220,$1699000,for_sale,,"baths_consolidated: 2, type: condos, sub_type: condo, sold_date: 2017-09-06",225 E 34th St Apt 8I,10016,New York,NY,Manhattan,40.745399,-73.976944,https://www.realtor.com/realestateandhomes-detail/225-E-34th-St-Apt-8I_New-York_NY_10016_M31195-64220
16-Park-Ave-B10_New-York_NY_10016_M34756-15111,$645000,for_sale,,"baths_consolidated: 1, type: coop, sub_type: co_op, sold_date: 2013-09-13",16 Park Avenue Ave Unit 10B,10016,New York,NY,Manhattan,40.747731,-73.981286,https://www.realtor.com/realestateandhomes-detail/16-Park-Ave-B10_New-York_NY_10016_M34756-15111
325-Lexington-Ave-Apt-4E_New-York_NY_10016_M41418-38998,$825000,for_sale,$25000,"baths_consolidated: 1, type: townhomes, sub_type: condo",325 Lexington Ave Apt 4E,10016,New York,NY,New York,40.749237,-73.97747,https://www.realtor.com/realestateandhomes-detail/325-Lexington-Ave-Apt-4E_New-York_NY_10016_M41418-38998
133-E-30th-St-Apt-4C_New-York_NY_10016_M45759-58491,$599000,for_sale,,"baths_consolidated: 1, type: coop, sub_type: co_op",133 E 30th St Apt 4C,10016,New York,NY,Manhattan,40.743857,-73.980929,https://www.realtor.com/realestateandhomes-detail/133-E-30th-St-Apt-4C_New-York_NY_10016_M45759-58491
325-5th-Ave-Apt-10D_New-York_NY_10016_M38892-68508,$1295000,for_sale,$55000,"baths_consolidated: 1.5, type: condos, sub_type: condo, sold_date: 2012-01-27",325 Fifth Ave Apt 10D,10016,New York,NY,New York,40.74733,-73.984857,https://www.realtor.com/realestateandhomes-detail/325-5th-Ave-Apt-10D_New-York_NY_10016_M38892-68508
210-E-36th-St-Apt-6G_New-York_NY_10016_M30090-64554,$385000,for_sale,,"baths_consolidated: 1, type: coop, sub_type: co_op",210 E 36th St Apt 6G,10016,New York,NY,New York,40.74654,-73.976652,https://www.realtor.com/realestateandhomes-detail/210-E-36th-St-Apt-6G_New-York_NY_10016_M30090-64554
300-E-33rd-St-Apt-16B_New-York_NY_10016_M30153-34742,$850000,for_sale,$25000,"baths_consolidated: 1, type: condos, sub_type: condo, sold_date: 1982-04-12",300 E 33rd St Apt 16B,10016,New York,NY,New York,40.742673,-73.975706,https://www.realtor.com/realestateandhomes-detail/300-E-33rd-St-Apt-16B_New-York_NY_10016_M30153-34742
300-E-40th-St-Apt-30N_New-York_NY_10016_M44690-62435,$799000,for_sale,,"baths_consolidated: 1, type: condos, sub_type: condo",300 E 40th St Apt 30N,10016,New York,NY,Manhattan,40.748161,-73.972664,https://www.realtor.com/realestateandhomes-detail/300-E-40th-St-Apt-30N_New-York_NY_10016_M44690-62435
529-2nd-Ave_New-York_NY_10016_M94946-03584,$3495000,for_sale,,"baths_consolidated: 3, type: townhomes, sub_type: townhouse",529 Second Ave,10016,New York,NY,New York,40.741985,-73.978142,https://www.realtor.com/realestateandhomes-detail/529-2nd-Ave_New-York_NY_10016_M94946-03584
288-Lexington-Ave-Apt-12B_New-York_NY_10016_M38370-67271,$625000,for_sale,,"baths_consolidated: 1, type: coop, sub_type: co_op, sold_date: 2006-03-29",288 Lexington Ave Apt 12B,10016,New York,NY,New York,40.748136,-73.978807,https://www.realtor.com/realestateandhomes-detail/288-Lexington-Ave-Apt-12B_New-York_NY_10016_M38370-67271
211-Madison-Ave-A22_New-York_NY_10016_M40605-03435,$2249000,for_sale,$246000,"baths_consolidated: 3, type: condos, sub_type: condo, sold_date: 2014-05-07",211 Madison Ave Unit 22A,10016,New York,NY,New York,40.748671,-73.981964,https://www.realtor.com/realestateandhomes-detail/211-Madison-Ave-A22_New-York_NY_10016_M40605-03435
225-E-36th-St-Apt-11G_New-York_NY_10016_M37172-43690,$425000,for_sale,,"baths_consolidated: 1, type: coop, sub_type: co_op, sold_date: 2013-07-01",225 E 36th St Apt 11G,10016,New York,NY,Manhattan,40.746653,-73.975773,https://www.realtor.com/realestateandhomes-detail/225-E-36th-St-Apt-11G_New-York_NY_10016_M37172-43690
251-E-32nd-St-J5_New-York_NY_10016_M91355-30383,$649000,for_sale,,"baths_consolidated: 1, type: coop, sub_type: co_op",251 E 32nd St Unit 5J,10016,New York,NY,New York,40.743851,-73.976967,https://www.realtor.com/realestateandhomes-detail/251-E-32nd-St-J5_New-York_NY_10016_M91355-30383
132-E-35th-St-16GH_New-York_NY_10016_M98928-39043,$2175000,for_sale,$324999,"baths_consolidated: 3.5, type: coop, sub_type: co_op",132 E 35th St # 16GH,10016,New York,NY,New York,40.746872,-73.979691,https://www.realtor.com/realestateandhomes-detail/132-E-35th-St-16GH_New-York_NY_10016_M98928-39043
11-E-36th-St-Ste-903_New-York_NY_10016_M35536-91112,$699000,for_sale,,"baths_consolidated: 1, type: condos, sub_type: condo, sold_date: 2020-08-18",11 E 36th St Ste 903,10016,New York,NY,New York,40.749634,-73.982578,https://www.realtor.com/realestateandhomes-detail/11-E-36th-St-Ste-903_New-York_NY_10016_M35536-91112
248-E-32nd-St_New-York_NY_10016_M93696-39010,$6397362,for_sale,,"baths_consolidated: 9, type: townhomes, sub_type: townhouse",248 E 32nd St,10016,New York,NY,New York,40.743526,-73.977463,https://www.realtor.com/realestateandhomes-detail/248-E-32nd-St_New-York_NY_10016_M93696-39010
7-Park-Ave-Apt-43_New-York_NY_10016_M32837-71965,$795000,for_sale,,"baths_consolidated: 1, type: coop, sub_type: co_op, sold_date: 2019-02-07",7 Park Avenue Ave Unit 43,10016,New York,NY,Manhattan,40.747062,-73.980636,https://www.realtor.com/realestateandhomes-detail/7-Park-Ave-Apt-43_New-York_NY_10016_M32837-71965
300-E-40th-St-Apt-9G_New-York_NY_10016_M44661-92957,$665000,for_sale,$34000,"baths_consolidated: 1, type: condos, sub_type: condo",300 E 40th St Apt 9G,10016,New York,NY,Manhattan,40.748161,-73.972664,https://www.realtor.com/realestateandhomes-detail/300-E-40th-St-Apt-9G_New-York_NY_10016_M44661-92957
120-E-36th-St-Apt-10C_New-York_NY_10016_M98622-84510,$499000,for_sale,,"baths_consolidated: 1, type: coop, sub_type: co_op",120 E 36th St Apt 10C,10016,New York,NY,New York,40.747841,-73.979454,https://www.realtor.com/realestateandhomes-detail/120-E-36th-St-Apt-10C_New-York_NY_10016_M98622-84510
150-E-27th-St-Apt-1F_New-York_NY_10016_M34176-57124,$535000,for_sale,$4500,"baths_consolidated: 1, type: coop, sub_type: co_op, sold_date: 2005-08-12",150 E 27th St Apt 1F,10016,New York,NY,Manhattan,40.741459,-73.982149,https://www.realtor.com/realestateandhomes-detail/150-E-27th-St-Apt-1F_New-York_NY_10016_M34176-57124
137-E-36th-St-11G_New-York_NY_10016_M97666-48151,$725000,for_sale,$50000,"baths_consolidated: 1.5, type: coop, sub_type: co_op",137 E 36th St Unit 11G,10016,New York,NY,Manhattan,40.747795,-73.978447,https://www.realtor.com/realestateandhomes-detail/137-E-36th-St-11G_New-York_NY_10016_M97666-48151
225-E-36th-St-Apt-7J_New-York_NY_10016_M36559-43079,$435000,for_sale,,"baths_consolidated: 1, type: single_family, sold_date: 2020-09-02",225 E 36th St Apt 7J,10016,New York,NY,New York,40.746653,-73.975773,https://www.realtor.com/realestateandhomes-detail/225-E-36th-St-Apt-7J_New-York_NY_10016_M36559-43079
150-E-27th-St-2EF_New-York_NY_10016_M94788-18923,$1450000,for_sale,,"baths_consolidated: 2, type: coop, sub_type: co_op",150 E 27th St # 2EF,10016,New York,NY,New York,40.74155,-73.982086,https://www.realtor.com/realestateandhomes-detail/150-E-27th-St-2EF_New-York_NY_10016_M94788-18923
50-Park-Ave-Apt-14E_New-York_NY_10016_M32296-61816,$585000,for_sale,,"baths_consolidated: 1, type: coop, sub_type: co_op, sold_date: 2007-06-26",50 Park Ave Apt 14E,10016,New York,NY,New York,40.749365,-73.980346,https://www.realtor.com/realestateandhomes-detail/50-Park-Ave-Apt-14E_New-York_NY_10016_M32296-61816
330-E-38th-St-Apt-5I_New-York_NY_10016_M37671-11973,$1099999,for_sale,,"baths_consolidated: 1, type: condos, sub_type: condo, sold_date: 2015-07-13",330 E 38th St Apt 5I,10016,New York,NY,New York,40.746328,-73.972718,https://www.realtor.com/realestateandhomes-detail/330-E-38th-St-Apt-5I_New-York_NY_10016_M37671-11973
137-E-28th-St-Apt-1A_New-York_NY_10016_M47132-91224,$545000,for_sale,$50000,"baths_consolidated: 1, type: coop, sub_type: co_op",137 E 28th St Apt 1A,10016,New York,NY,New York,40.742644,-73.981883,https://www.realtor.com/realestateandhomes-detail/137-E-28th-St-Apt-1A_New-York_NY_10016_M47132-91224
138-E-36th-St-Apt-1B_New-York_NY_10016_M43770-78963,$340000,for_sale,$20000,"baths_consolidated: 1, type: coop, sub_type: co_op, sold_date: 2016-01-07",138 E 36th St Apt 1B,10016,New York,NY,New York,40.74728,-73.978408,https://www.realtor.com/realestateandhomes-detail/138-E-36th-St-Apt-1B_New-York_NY_10016_M43770-78963
16-Park-Ave-D7_New-York_NY_10016_M47006-92034,$695000,for_sale,$55000,"baths_consolidated: 1, type: coop, sub_type: co_op, sold_date: 2015-03-12",16 Park Ave # 7D,10016,New York,NY,New York,40.747731,-73.981286,https://www.realtor.com/realestateandhomes-detail/16-Park-Ave-D7_New-York_NY_10016_M47006-92034
16-Park-Ave-C13_New-York_NY_10016_M43342-31353,$545000,for_sale,,"baths_consolidated: 1, type: coop, sub_type: co_op, sold_date: 2015-08-19",16 Park Ave Unit 13C,10016,New York,NY,New York,40.747731,-73.981286,https://www.realtor.com/realestateandhomes-detail/16-Park-Ave-C13_New-York_NY_10016_M43342-31353
250-E-30th-St-Apt-7C_New-York_NY_10016_M45073-75219,$585000,for_sale,,"baths_consolidated: 1, type: condos, sub_type: condo, sold_date: 2018-04-16",250 E 30th St Apt 7C,10016,New York,NY,New York,40.742192,-73.978101,https://www.realtor.com/realestateandhomes-detail/250-E-30th-St-Apt-7C_New-York_NY_10016_M45073-75219
114-E-36th-St-Apt-4_New-York_NY_10016_M43845-03629,$1185000,for_sale,,"baths_consolidated: 2, type: coop, sub_type: co_op, sold_date: 2013-07-10",114 E 36th St Apt 4,10016,New York,NY,New York,40.747831,-73.979716,https://www.realtor.com/realestateandhomes-detail/114-E-36th-St-Apt-4_New-York_NY_10016_M43845-03629
35-E-30th-St-Apt-9C_New-York_NY_10016_M32842-32974,$650000,for_sale,,"baths_consolidated: 1, type: coop, sub_type: co_op, sold_date: 2021-06-10",35 E 30th St Apt 9C,10016,New York,NY,New York,40.745108,-73.983886,https://www.realtor.com/realestateandhomes-detail/35-E-30th-St-Apt-9C_New-York_NY_10016_M32842-32974
105-E-29th-St-Apt-3_New-York_NY_10016_M36466-28978,$4995000,for_sale,,"baths_consolidated: 3, type: coop, sub_type: co_op, sold_date: 2012-05-04",105 E 29th St Apt 3,10016,New York,NY,New York,40.743873,-73.982878,https://www.realtor.com/realestateandhomes-detail/105-E-29th-St-Apt-3_New-York_NY_10016_M36466-28978
145-E-29th-St-Apt-2C_New-York_NY_10016_M96794-91405,$339000,for_sale,,"baths_consolidated: 1, type: coop, sub_type: co_op",145 E 29th St Apt 2C,10016,New York,NY,New York,40.74297,-73.981026,https://www.realtor.com/realestateandhomes-detail/145-E-29th-St-Apt-2C_New-York_NY_10016_M96794-91405
152-E-35th-St-Apt-2G_New-York_NY_10016_M48819-06684,$469000,for_sale,,"baths_consolidated: 1, type: coop, sub_type: co_op, sold_date: 2013-11-22",152 E 35th St Apt 2G,10016,New York,NY,New York,40.746503,-73.978479,https://www.realtor.com/realestateandhomes-detail/152-E-35th-St-Apt-2G_New-York_NY_10016_M48819-06684
115-E-36th-St_New-York_NY_10016_M34911-18477,$1700000,for_sale,$50000,"baths_consolidated: 2, type: coop, sub_type: co_op, sold_date: 1979-06-19",115 E 36th St Unit Garden,10016,New York,NY,Manhattan,40.748176,-73.979367,https://www.realtor.com/realestateandhomes-detail/115-E-36th-St_New-York_NY_10016_M34911-18477
160-E-27th-St-Apt-4B_New-York_NY_10016_M41098-20737,$725000,for_sale,$14000,"baths_consolidated: 1, type: coop, sub_type: co_op, sold_date: 2022-10-17",160 E 27th St Apt 4B,10016,New York,NY,New York,40.741361,-73.981735,https://www.realtor.com/realestateandhomes-detail/160-E-27th-St-Apt-4B_New-York_NY_10016_M41098-20737
67-Park-Ave-E8_New-York_NY_10016_M44219-93167,$525000,for_sale,$25000,"baths_consolidated: 1, type: coop, sub_type: co_op, sold_date: 2017-08-21",67 Park Ave Unit 8E,10016,New York,NY,Manhattan,40.749577,-73.979012,https://www.realtor.com/realestateandhomes-detail/67-Park-Ave-E8_New-York_NY_10016_M44219-93167
23-Park-Ave-Apt-1C_New-York_NY_10016_M45788-32923,$900000,for_sale,$100000,"baths_consolidated: 1.5, type: coop, sub_type: co_op",23 Park Avenue Ave Unit 1C,10016,New York,NY,Manhattan,40.74778,-73.98053,https://www.realtor.com/realestateandhomes-detail/23-Park-Ave-Apt-1C_New-York_NY_10016_M45788-32923
136-E-36th-St-Apt-5D_New-York_NY_10016_M37093-66698,$485000,for_sale,$10000,"baths_consolidated: 1, type: coop, sub_type: co_op",136 E 36th St Apt 5D,10016,New York,NY,Manhattan,40.747505,-73.978622,https://www.realtor.com/realestateandhomes-detail/136-E-36th-St-Apt-5D_New-York_NY_10016_M37093-66698
15-E-30th-St-Apt-52C_New-York_NY_10016_M91806-09471,$5500000,for_sale,,"baths_consolidated: 2.5, type: condos, sub_type: condo",15 E 30th St Apt 52C,10016,New York,NY,New York,40.745701,-73.985168,https://www.realtor.com/realestateandhomes-detail/15-E-30th-St-Apt-52C_New-York_NY_10016_M91806-09471
15-E-30th-St-60A_New-York_NY_10016_M95212-07160,$25000000,for_sale,,"baths_consolidated: 5.5, type: condos, sub_type: condo",15 E 30th St Ph 60A,10016,New York,NY,New York,40.745602,-73.985237,https://www.realtor.com/realestateandhomes-detail/15-E-30th-St-60A_New-York_NY_10016_M95212-07160
88-Lexington-Ave-Apt-802_New-York_NY_10016_M41146-59317,$1299000,for_sale,$50000,"baths_consolidated: 1, type: condos, sub_type: condo, sold_date: 2018-07-12",88 Lexington Ave Apt 802,10016,New York,NY,New York,40.741714,-73.983513,https://www.realtor.com/realestateandhomes-detail/88-Lexington-Ave-Apt-802_New-York_NY_10016_M41146-59317
630-1st-Ave-Apt-17E_New-York_NY_10016_M32035-00634,$1075000,for_sale,,"baths_consolidated: 2, type: condos, sub_type: condo, sold_date: 2005-05-06",630 First Ave Unit 17E,10016,New York,NY,New York,40.745157,-73.971836,https://www.realtor.com/realestateandhomes-detail/630-1st-Ave-Apt-17E_New-York_NY_10016_M32035-00634
150-E-27th-St-Apt-3B_New-York_NY_10016_M48755-59794,$480000,for_sale,,"baths_consolidated: 1, type: coop, sub_type: co_op, sold_date: 2019-11-22",150 E 27th St Apt 3B,10016,New York,NY,New York,40.741459,-73.982149,https://www.realtor.com/realestateandhomes-detail/150-E-27th-St-Apt-3B_New-York_NY_10016_M48755-59794
305-E-40th-St-Apt-6P_New-York_NY_10016_M42556-22560,$775000,for_sale,$24000,"baths_consolidated: 1, type: coop, sub_type: co_op, sold_date: 2012-09-12",305 E 40th St Apt 6P,10016,New York,NY,New York,40.74856,-73.972497,https://www.realtor.com/realestateandhomes-detail/305-E-40th-St-Apt-6P_New-York_NY_10016_M42556-22560
88-Lexington-Ave-Apt-1801_New-York_NY_10016_M41157-02763,$3995000,for_sale,,"baths_consolidated: 3, type: condos, sub_type: condo",88 Lexington Ave Apt 1801,10016,New York,NY,New York,40.741714,-73.983513,https://www.realtor.com/realestateandhomes-detail/88-Lexington-Ave-Apt-1801_New-York_NY_10016_M41157-02763
90-Lexington-Ave_New-York_NY_10016_M95292-87514,$2750000,for_sale,,"baths_consolidated: 2.5, type: condos, sub_type: condo",90 Lexington Ave # Ma,10016,New York,NY,New York,40.741955,-73.983322,https://www.realtor.com/realestateandhomes-detail/90-Lexington-Ave_New-York_NY_10016_M95292-87514
201-E-28th-St-9F_New-York_NY_10016_M93404-92003,$750000,for_sale,,"baths_consolidated: 1, type: coop, sub_type: co_op",201 E 28th St Unit 9F,10016,New York,NY,Manhattan,40.741875,-73.980286,https://www.realtor.com/realestateandhomes-detail/201-E-28th-St-9F_New-York_NY_10016_M93404-92003
649-2nd-Ave-Apt-6B_New-York_NY_10016_M36400-89311,$400000,for_sale,$10000,"baths_consolidated: 1, type: coop, sub_type: co_op, sold_date: 2004-08-11",649 Second Ave Apt 6B,10016,New York,NY,New York,40.745861,-73.975319,https://www.realtor.com/realestateandhomes-detail/649-2nd-Ave-Apt-6B_New-York_NY_10016_M36400-89311
157-E-32nd-St-Apt-4E_New-York_NY_10016_M31771-53612,$629000,for_sale,,"baths_consolidated: 1, type: condos, sub_type: condo, sold_date: 2001-06-20",157 E 32nd St Apt 4E,10016,New York,NY,New York,40.744985,-73.979487,https://www.realtor.com/realestateandhomes-detail/157-E-32nd-St-Apt-4E_New-York_NY_10016_M31771-53612
330-E-38th-St-18AQ_New-York_NY_10016_M41149-11711,$2300000,for_sale,$90000,"baths_consolidated: 2.5, type: condos, sub_type: condo, sold_date: 2015-06-24",330 E 38th St Unit 18AQ,10016,New York,NY,Manhattan,40.746328,-73.972718,https://www.realtor.com/realestateandhomes-detail/330-E-38th-St-18AQ_New-York_NY_10016_M41149-11711
139-E-33rd-St-Apt-10B_New-York_NY_10016_M40036-50771,$689000,for_sale,$10000,"baths_consolidated: 1, type: coop, sub_type: co_op, sold_date: 2008-08-26",139 E 33rd St Apt 10B,10016,New York,NY,Manhattan,40.746076,-73.980505,https://www.realtor.com/realestateandhomes-detail/139-E-33rd-St-Apt-10B_New-York_NY_10016_M40036-50771
16-Park-Ave-B12_New-York_NY_10016_M31559-77783,$700000,for_sale,$25000,"baths_consolidated: 1, type: coop, sub_type: co_op, sold_date: 2017-07-25",16 Park Ave Unit 12B,10016,New York,NY,Manhattan,40.747731,-73.981286,https://www.realtor.com/realestateandhomes-detail/16-Park-Ave-B12_New-York_NY_10016_M31559-77783
251-E-32nd-St-A12_New-York_NY_10016_M31015-32241,$799000,for_sale,$51000,"baths_consolidated: 1, type: coop, sub_type: co_op, sold_date: 2014-10-15",251 E 32nd St Unit 12A,10016,New York,NY,Manhattan,40.743851,-73.976968,https://www.realtor.com/realestateandhomes-detail/251-E-32nd-St-A12_New-York_NY_10016_M31015-32241
425-Park-Ave-S-Apt-14B_New-York_NY_10016_M37871-87400,$1125000,for_sale,$25000,"baths_consolidated: 2, type: coop, sub_type: co_op",425 Park Avenue Ave SSOUTH Unit 14B,10016,New York,NY,Manhattan,40.743974,-73.983239,https://www.realtor.com/realestateandhomes-detail/425-Park-Ave-S-Apt-14B_New-York_NY_10016_M37871-87400
140-E-40th-St-Apt-9H_New-York_NY_10016_M93887-54584,$397000,for_sale,,"baths_consolidated: 1, type: coop, sub_type: co_op",140 E 40th St Apt 9H,10016,New York,NY,Manhattan,40.749813,-73.976425,https://www.realtor.com/realestateandhomes-detail/140-E-40th-St-Apt-9H_New-York_NY_10016_M93887-54584
250-E-30th-St-Apt-5B_New-York_NY_10016_M43580-14545,$795000,for_sale,,"baths_consolidated: 1, type: condos, sub_type: condo, sold_date: 2003-10-16",250 E 30th St Apt 5B,10016,New York,NY,New York,40.742192,-73.978101,https://www.realtor.com/realestateandhomes-detail/250-E-30th-St-Apt-5B_New-York_NY_10016_M43580-14545
250-E-30th-St-Apt-6B_New-York_NY_10016_M43377-89287,$779000,for_sale,,"baths_consolidated: 1, type: condos, sub_type: condo, sold_date: 2020-02-07",250 E 30th St Apt 6B,10016,New York,NY,Manhattan,40.742192,-73.978101,https://www.realtor.com/realestateandhomes-detail/250-E-30th-St-Apt-6B_New-York_NY_10016_M43377-89287
7-E-35th-St-Apt-1F_New-York_NY_10016_M33779-01515,$469000,for_sale,,"baths_consolidated: 1, type: coop, sub_type: co_op",7 E 35th St Apt 1F,10016,New York,NY,New York,40.748978,-73.983192,https://www.realtor.com/realestateandhomes-detail/7-E-35th-St-Apt-1F_New-York_NY_10016_M33779-01515
35-E-38th-St-Apt-10G_New-York_NY_10016_M31536-76068,$825000,for_sale,$74000,"baths_consolidated: 1, type: condos, sub_type: condo, sold_date: 1978-10-24",35 E 38th St Apt 10G,10016,New York,NY,Manhattan,40.750058,-73.979999,https://www.realtor.com/realestateandhomes-detail/35-E-38th-St-Apt-10G_New-York_NY_10016_M31536-76068
88-Lexington-Ave-Apt-1602_New-York_NY_10016_M41155-16434,$2600000,for_sale,$200000,"baths_consolidated: 2, type: condos, sub_type: condo",88 Lexington Ave Apt 1602,10016,New York,NY,New York,40.741714,-73.983513,https://www.realtor.com/realestateandhomes-detail/88-Lexington-Ave-Apt-1602_New-York_NY_10016_M41155-16434
110-E-36th-St-Apt-7F_New-York_NY_10016_M34705-74762,$399000,for_sale,,"baths_consolidated: 1, type: coop, sub_type: co_op, sold_date: 2005-03-25",110 E 36th St Apt 7F,10016,New York,NY,Manhattan,40.747915,-73.979914,https://www.realtor.com/realestateandhomes-detail/110-E-36th-St-Apt-7F_New-York_NY_10016_M34705-74762
7-E-35th-St-Apt-6G_New-York_NY_10016_M33891-50785,$799000,for_sale,,"baths_consolidated: 1.5, type: coop, sub_type: co_op, sold_date: 2016-01-13",7 E 35th St Apt 6G,10016,New York,NY,Manhattan,40.748978,-73.983192,https://www.realtor.com/realestateandhomes-detail/7-E-35th-St-Apt-6G_New-York_NY_10016_M33891-50785
200-E-27th-St-Apt-3X_New-York_NY_10016_M44963-01456,$599000,for_sale,,"baths_consolidated: 1, type: coop, sub_type: co_op, sold_date: 2015-04-24",200 E 27th St Apt 3X,10016,New York,NY,Manhattan,40.7409,-73.980943,https://www.realtor.com/realestateandhomes-detail/200-E-27th-St-Apt-3X_New-York_NY_10016_M44963-01456
333-E-34th-St-Ofc-1L_New-York_NY_10016_M92585-60739,$1185000,for_sale,,"baths_consolidated: 2, type: condos, sub_type: condo",333 E 34th St # 1L,10016,New York,NY,New York,40.744221,-73.974136,https://www.realtor.com/realestateandhomes-detail/333-E-34th-St-Ofc-1L_New-York_NY_10016_M92585-60739
15-E-30th-St-Apt-58A_New-York_NY_10016_M94979-45465,$13950000,for_sale,,"baths_consolidated: 4, type: condos, sub_type: condo",15 E 30th St Apt 58A,10016,New York,NY,New York,40.745701,-73.985168,https://www.realtor.com/realestateandhomes-detail/15-E-30th-St-Apt-58A_New-York_NY_10016_M94979-45465
80-Park-Ave-Apt-6G_New-York_NY_10016_M31566-20078,$850000,for_sale,$45000,"baths_consolidated: 1, type: condos, sub_type: condo, sold_date: 2002-02-21",80 Park Ave Apt 6G,10016,New York,NY,New York,40.750207,-73.979654,https://www.realtor.com/realestateandhomes-detail/80-Park-Ave-Apt-6G_New-York_NY_10016_M31566-20078
300-E-40th-St-Apt-17E_New-York_NY_10016_M42476-63608,$725000,for_sale,,"baths_consolidated: 1, type: coop, sub_type: co_op",300 E 40th St Apt 17E,10016,New York,NY,New York,40.748161,-73.972664,https://www.realtor.com/realestateandhomes-detail/300-E-40th-St-Apt-17E_New-York_NY_10016_M42476-63608
220-Madison-Ave-Apt-9O_New-York_NY_10016_M44802-27239,$575000,for_sale,,"baths_consolidated: 1, type: coop, sub_type: co_op, sold_date: 2016-10-20",220 Madison Ave Apt 9O,10016,New York,NY,New York,40.749462,-73.981918,https://www.realtor.com/realestateandhomes-detail/220-Madison-Ave-Apt-9O_New-York_NY_10016_M44802-27239
325-5th-Ave-Apt-24H_New-York_NY_10016_M46485-22741,$1995000,for_sale,,"baths_consolidated: 2, type: condos, sub_type: condo, sold_date: 2007-07-05",325 Fifth Ave Unit 24H,10016,New York,NY,New York,40.74733,-73.984857,https://www.realtor.com/realestateandhomes-detail/325-5th-Ave-Apt-24H_New-York_NY_10016_M46485-22741
277-5th-Ave-49B_New-York_NY_10016_M95154-77713,$4995000,for_sale,,"baths_consolidated: 2, type: condos, sub_type: condo, sold_date: 2021-11-24",277 Fifth Ave Unit 49B,10016,New York,NY,New York,40.745567,-73.986244,https://www.realtor.com/realestateandhomes-detail/277-5th-Ave-49B_New-York_NY_10016_M95154-77713
311-E-38th-St-Apt-14E_New-York_NY_10016_M32779-49765,$849000,for_sale,$26000,"baths_consolidated: 1.5, type: condos, sub_type: condo, sold_date: 2002-07-23",311 E 38th St Apt 14E,10016,New York,NY,New York,40.747242,-73.973217,https://www.realtor.com/realestateandhomes-detail/311-E-38th-St-Apt-14E_New-York_NY_10016_M32779-49765
350-E-30th-St-Apt-5V_New-York_NY_10016_M40827-67252,$749000,for_sale,,"baths_consolidated: 1, type: condos, sub_type: condo, sold_date: 2014-01-28",350 E 30th St Apt 5V,10016,New York,NY,New York,40.741099,-73.975917,https://www.realtor.com/realestateandhomes-detail/350-E-30th-St-Apt-5V_New-York_NY_10016_M40827-67252
45-E-30th-St-B_New-York_NY_10016_M39625-46344,$7995000,for_sale,$1000000,"baths_consolidated: 4.5, type: condos, sub_type: condo",45 E 30th St # B,10016,New York,NY,New York,40.744986,-73.983596,https://www.realtor.com/realestateandhomes-detail/45-E-30th-St-B_New-York_NY_10016_M39625-46344
35-E-38th-St-Apt-8D_New-York_NY_10016_M31528-18952,$565000,for_sale,,"baths_consolidated: 1, type: condos, sub_type: condo, sold_date: 1982-12-13",35 E 38th St Apt 8D,10016,New York,NY,New York,40.750058,-73.979999,https://www.realtor.com/realestateandhomes-detail/35-E-38th-St-Apt-8D_New-York_NY_10016_M31528-18952
330-E-38th-St-Apt-46A_New-York_NY_10016_M41196-45863,$1287900,for_sale,,"baths_consolidated: 1, type: condos, sub_type: condo",330 E 38th St Apt 46A,10016,New York,NY,New York,40.746328,-73.972718,https://www.realtor.com/realestateandhomes-detail/330-E-38th-St-Apt-46A_New-York_NY_10016_M41196-45863
400-Park-Ave-S-Apt-27C_New-York_NY_10016_M32495-01786,$5500000,for_sale,,"baths_consolidated: 3, type: condos, sub_type: condo",400 Park Ave S Apt 27C,10016,New York,NY,New York,40.743257,-73.984613,https://www.realtor.com/realestateandhomes-detail/400-Park-Ave-S-Apt-27C_New-York_NY_10016_M32495-01786
300-E-33rd-St-Apt-3P_New-York_NY_10016_M30544-26716,$825000,for_sale,$24000,"baths_consolidated: 1, type: condos, sub_type: condo, sold_date: 2005-10-28",300 E 33rd St Apt 3P,10016,New York,NY,Manhattan,40.742673,-73.975706,https://www.realtor.com/realestateandhomes-detail/300-E-33rd-St-Apt-3P_New-York_NY_10016_M30544-26716
404-Park-Ave-S-Apt-4A_New-York_NY_10016_M34724-84586,$1945000,for_sale,$50000,"baths_consolidated: 1, type: condos, sub_type: condo, sold_date: 2015-01-23",404 Park Ave S Apt 4A,10016,New York,NY,New York,40.743584,-73.984116,https://www.realtor.com/realestateandhomes-detail/404-Park-Ave-S-Apt-4A_New-York_NY_10016_M34724-84586
161-Madison-Ave-Ste-7SW_New-York_NY_10016_M99494-43920,$1300000,for_sale,,"baths_consolidated: 0.5, type: condos, sub_type: condo",161 Madison Ave Ste 7SW,10016,New York,NY,New York,40.746788,-73.983475,https://www.realtor.com/realestateandhomes-detail/161-Madison-Ave-Ste-7SW_New-York_NY_10016_M99494-43920
211-Madison-Ave-7_New-York_NY_10016_M40598-69914,$1195000,for_sale,$100000,"baths_consolidated: 1.5, type: condos, sub_type: condo, sold_date: 2013-03-22",211 Madison Ave Unit 7A,10016,New York,NY,Manhattan,40.748671,-73.981964,https://www.realtor.com/realestateandhomes-detail/211-Madison-Ave-7_New-York_NY_10016_M40598-69914
211-Madison-Ave-A28_New-York_NY_10016_M40607-64296,$3595000,for_sale,,"baths_consolidated: 3, type: condos, sub_type: condo",211 Madison Ave Unit 28A,10016,New York,NY,Manhattan,40.748671,-73.981964,https://www.realtor.com/realestateandhomes-detail/211-Madison-Ave-A28_New-York_NY_10016_M40607-64296
135-E-39th-St-1CD_New-York_NY_10016_M30122-49678,$1450000,for_sale,$75000,"baths_consolidated: 2, type: coop, sub_type: co_op, sold_date: 2008-10-27",135 E 39th St Unit 1CD,10016,New York,NY,Manhattan,40.749522,-73.976766,https://www.realtor.com/realestateandhomes-detail/135-E-39th-St-1CD_New-York_NY_10016_M30122-49678
201-E-28th-St-C19_New-York_NY_10016_M42350-17122,$549000,for_sale,,"baths_consolidated: 1, type: coop, sub_type: co_op",201 E 28th St # 19C,10016,New York,NY,New York,40.741925,-73.980476,https://www.realtor.com/realestateandhomes-detail/201-E-28th-St-C19_New-York_NY_10016_M42350-17122
325-Lexington-Ave-11_New-York_NY_10016_M94788-11446,$1349000,for_sale,,"baths_consolidated: 1, type: condos, sub_type: condo",325 Lexington Ave Unit 11,10016,New York,NY,New York,40.749191,-73.977364,https://www.realtor.com/realestateandhomes-detail/325-Lexington-Ave-11_New-York_NY_10016_M94788-11446
152-E-35th-St-Apt-3A_New-York_NY_10016_M44023-19898,$775000,for_sale,,"baths_consolidated: 1, type: coop, sub_type: co_op, sold_date: 2018-07-31",152 E 35th St Apt 3A,10016,New York,NY,New York,40.746503,-73.978479,https://www.realtor.com/realestateandhomes-detail/152-E-35th-St-Apt-3A_New-York_NY_10016_M44023-19898
277-5th-Ave-50B_New-York_NY_10016_M94941-91106,$6500000,for_sale,,"baths_consolidated: 2.5, type: condos, sub_type: condo, sold_date: 2021-11-24",277 Fifth Ave Unit 50B,10016,New York,NY,New York,40.745567,-73.986244,https://www.realtor.com/realestateandhomes-detail/277-5th-Ave-50B_New-York_NY_10016_M94941-91106
16-Park-Ave-B5_New-York_NY_10016_M31441-73744,$645000,for_sale,,"baths_consolidated: 1, type: coop, sub_type: co_op, sold_date: 2005-11-18",16 Park Avenue Ave Unit 5B,10016,New York,NY,Manhattan,40.747731,-73.981286,https://www.realtor.com/realestateandhomes-detail/16-Park-Ave-B5_New-York_NY_10016_M31441-73744
111-E-36th-St-Apt-5B_New-York_NY_10016_M33367-08464,$599000,for_sale,,"baths_consolidated: 1, type: coop, sub_type: co_op",111 E 36th St Apt 5B,10016,New York,NY,New York,40.744995,-73.978088,https://www.realtor.com/realestateandhomes-detail/111-E-36th-St-Apt-5B_New-York_NY_10016_M33367-08464
15-E-30th-St-Apt-58B_New-York_NY_10016_M92020-64993,$10900000,for_sale,,"baths_consolidated: 3, type: condos, sub_type: condo",15 E 30th St Apt 58B,10016,New York,NY,New York,40.745701,-73.985168,https://www.realtor.com/realestateandhomes-detail/15-E-30th-St-Apt-58B_New-York_NY_10016_M92020-64993
159-Madison-Ave-Apt-6B_New-York_NY_10016_M32289-77210,$458000,for_sale,$22000,"baths_consolidated: 1, type: coop, sub_type: co_op, sold_date: 2011-11-14",159 Madison Ave Apt 6B,10016,New York,NY,New York,40.746548,-73.983491,https://www.realtor.com/realestateandhomes-detail/159-Madison-Ave-Apt-6B_New-York_NY_10016_M32289-77210
157-E-32nd-St-Apt-11D_New-York_NY_10016_M31783-08856,$649000,for_sale,,"baths_consolidated: 1, type: condos, sub_type: condo, sold_date: 2004-05-07",157 E 32nd St Apt 11D,10016,New York,NY,New York,40.744985,-73.979487,https://www.realtor.com/realestateandhomes-detail/157-E-32nd-St-Apt-11D_New-York_NY_10016_M31783-08856
325-5th-Ave-Apt-15B_New-York_NY_10016_M38901-25624,$995000,for_sale,,"baths_consolidated: 1, type: condos, sub_type: condo, sold_date: 2016-05-19",325 Fifth Ave Unit 15B,10016,New York,NY,New York,40.74733,-73.984857,https://www.realtor.com/realestateandhomes-detail/325-5th-Ave-Apt-15B_New-York_NY_10016_M38901-25624
137-E-28th-St-Apt-5D_New-York_NY_10016_M32741-20085,$575000,for_sale,,"baths_consolidated: 1, type: coop, sub_type: co_op, sold_date: 2017-04-04",137 E 28th St Apt 5D,10016,New York,NY,New York,40.742644,-73.981883,https://www.realtor.com/realestateandhomes-detail/137-E-28th-St-Apt-5D_New-York_NY_10016_M32741-20085
35-E-38th-St-Apt-7G_New-York_NY_10016_M31525-58090,$935000,for_sale,$50000,"baths_consolidated: 1, type: condos, sub_type: condo, sold_date: 1998-12-14",35 E 38th St Apt 7G,10016,New York,NY,New York,40.750058,-73.979999,https://www.realtor.com/realestateandhomes-detail/35-E-38th-St-Apt-7G_New-York_NY_10016_M31525-58090
30-E-37th-St-Apt-6G_New-York_NY_10016_M35405-36234,$619000,for_sale,,"baths_consolidated: 1, type: condos, sub_type: condo, sold_date: 2013-10-04",30 E 37th St Apt 6G,10016,New York,NY,Manhattan,40.749139,-73.980886,https://www.realtor.com/realestateandhomes-detail/30-E-37th-St-Apt-6G_New-York_NY_10016_M35405-36234
139-E-33rd-St-Apt-8A_New-York_NY_10016_M39176-57423,$699000,for_sale,$26000,"baths_consolidated: 1, type: coop, sub_type: co_op",139 E 33rd St Apt 8A,10016,New York,NY,New York,40.745941,-73.980438,https://www.realtor.com/realestateandhomes-detail/139-E-33rd-St-Apt-8A_New-York_NY_10016_M39176-57423
201-E-28th-St-R4_New-York_NY_10016_M38834-92287,$595000,for_sale,$55000,"baths_consolidated: 1, type: coop, sub_type: co_op, sold_date: 2014-08-01",201 E 28th St Unit 4R,10016,New York,NY,New York,40.742013,-73.980276,https://www.realtor.com/realestateandhomes-detail/201-E-28th-St-R4_New-York_NY_10016_M38834-92287
425-5th-Ave-Apt-58A_New-York_NY_10016_M49435-02915,$2350000,for_sale,,"baths_consolidated: 2, type: condos, sub_type: condo, sold_date: 2016-07-06",425 Fifth Ave Unit 58A,10016,New York,NY,New York,40.750965,-73.982198,https://www.realtor.com/realestateandhomes-detail/425-5th-Ave-Apt-58A_New-York_NY_10016_M49435-02915
144-E-36th-St-3CD_New-York_NY_10016_M33177-58504,$1695000,for_sale,,"baths_consolidated: 2, type: coop, sub_type: co_op, sold_date: 2006-01-24",144 E 36th St Unit 3CD,10016,New York,NY,Manhattan,40.747196,-73.978211,https://www.realtor.com/realestateandhomes-detail/144-E-36th-St-3CD_New-York_NY_10016_M33177-58504
159-Madison-Ave-Apt-2E_New-York_NY_10016_M90779-19581,$410000,for_sale,,"baths_consolidated: 1, type: coop, sub_type: co_op",159 Madison Ave Apt 2E,10016,New York,NY,New York,40.746689,-73.983543,https://www.realtor.com/realestateandhomes-detail/159-Madison-Ave-Apt-2E_New-York_NY_10016_M90779-19581
235-E-40th-St-21AJ_New-York_NY_10016_M95228-71223,$2195000,for_sale,,"baths_consolidated: 2, type: condos, sub_type: condo",235 E 40th St Unit 21AJ,10016,New York,NY,New York,40.749268,-73.97364,https://www.realtor.com/realestateandhomes-detail/235-E-40th-St-21AJ_New-York_NY_10016_M95228-71223
7-Park-Ave-Apt-86_New-York_NY_10016_M96489-61560,$950000,for_sale,$15000,"baths_consolidated: 2, type: coop, sub_type: co_op",7 Park Ave Apt 86,10016,New York,NY,New York,40.747192,-73.980957,https://www.realtor.com/realestateandhomes-detail/7-Park-Ave-Apt-86_New-York_NY_10016_M96489-61560
80-Park-Ave-Apt-11N_New-York_NY_10016_M31594-52289,$1095000,for_sale,$55000,"baths_consolidated: 1, type: condos, sub_type: condo, sold_date: 2015-10-09",80 Park Ave Apt 11N,10016,New York,NY,New York,40.750207,-73.979654,https://www.realtor.com/realestateandhomes-detail/80-Park-Ave-Apt-11N_New-York_NY_10016_M31594-52289
425-5th-Ave-Apt-40D_New-York_NY_10016_M44506-19188,$1495000,for_sale,$100000,"baths_consolidated: 1.5, type: condos, sub_type: condo, sold_date: 2006-02-08",425 Fifth Ave Apt 40D,10016,New York,NY,New York,40.750965,-73.982198,https://www.realtor.com/realestateandhomes-detail/425-5th-Ave-Apt-40D_New-York_NY_10016_M44506-19188
200-E-36th-St-Apt-17B_New-York_NY_10016_M94834-65732,$928000,for_sale,$47000,"baths_consolidated: 2, type: coop, sub_type: co_op",200 E 36th St Apt 17B,10016,New York,NY,New York,40.746796,-73.976929,https://www.realtor.com/realestateandhomes-detail/200-E-36th-St-Apt-17B_New-York_NY_10016_M94834-65732
67-Park-Ave-A15_New-York_NY_10016_M30047-15322,$795000,for_sale,$54000,"baths_consolidated: 1, type: coop, sub_type: co_op, sold_date: 2011-09-19",67 Park Ave Unit 15A,10016,New York,NY,New York,40.749577,-73.979012,https://www.realtor.com/realestateandhomes-detail/67-Park-Ave-A15_New-York_NY_10016_M30047-15322
251-E-32nd-St-B3_New-York_NY_10016_M41777-89108,$735000,for_sale,$30000,"baths_consolidated: 1, type: coop, sub_type: co_op, sold_date: 2021-05-11",251 E 32nd St Unit 3B,10016,New York,NY,New York,40.743851,-73.976968,https://www.realtor.com/realestateandhomes-detail/251-E-32nd-St-B3_New-York_NY_10016_M41777-89108
181-E-28th-St-Apt-1401_New-York_NY_10016_M99140-11468,$2475000,for_sale,,"baths_consolidated: 2, type: condos, sub_type: condo, sold_date: 2022-11-10",181 E 28th St Apt 1401,10016,New York,NY,New York,40.622665,-73.993401,https://www.realtor.com/realestateandhomes-detail/181-E-28th-St-Apt-1401_New-York_NY_10016_M99140-11468
229-E-28th-St-Apt-LC_New-York_NY_10016_M36740-46256,$315000,for_sale,$10000,"baths_consolidated: 1, type: coop, sub_type: co_op",229 E 28th St Apt Lc,10016,New York,NY,New York,40.741578,-73.979352,https://www.realtor.com/realestateandhomes-detail/229-E-28th-St-Apt-LC_New-York_NY_10016_M36740-46256
251-E-32nd-St-3J_New-York_NY_10016_M95613-33114,$585000,for_sale,$10000,"baths_consolidated: 1, type: coop, sub_type: co_op",251 E 32nd St Unit 3J,10016,New York,NY,Manhattan,40.743851,-73.976967,https://www.realtor.com/realestateandhomes-detail/251-E-32nd-St-3J_New-York_NY_10016_M95613-33114
225-E-36th-St-14OP_New-York_NY_10016_M95821-24614,$1250000,for_sale,,"baths_consolidated: 2, type: coop, sub_type: co_op",225 E 36th St # 14OP,10016,New York,NY,New York,40.746689,-73.975769,https://www.realtor.com/realestateandhomes-detail/225-E-36th-St-14OP_New-York_NY_10016_M95821-24614
30-E-29th-St-Apt-40A_New-York_NY_10016_M96674-28920,$5965000,for_sale,,"baths_consolidated: 2.5, type: condos, sub_type: condo",30 E 29th St Apt 40A,10016,New York,NY,New York,40.744164,-73.984718,https://www.realtor.com/realestateandhomes-detail/30-E-29th-St-Apt-40A_New-York_NY_10016_M96674-28920
136-E-36th-St_New-York_NY_10016_M35325-71165,$1995000,for_sale,,"baths_consolidated: 1.5, type: coop, sub_type: co_op, sold_date: 2014-06-03",136 E 36th St Unit Ph,10016,New York,NY,Manhattan,40.747404,-73.978647,https://www.realtor.com/realestateandhomes-detail/136-E-36th-St_New-York_NY_10016_M35325-71165
139-E-36th-St-Apt-2_New-York_NY_10016_M32178-46280,$1550000,for_sale,$100000,"baths_consolidated: 2, type: coop, sub_type: co_op, sold_date: 2011-02-10",139 E 36th St Apt 2,10016,New York,NY,New York,40.747676,-73.97818,https://www.realtor.com/realestateandhomes-detail/139-E-36th-St-Apt-2_New-York_NY_10016_M32178-46280
407-Park-Ave-S-Apt-24C_New-York_NY_10016_M49256-79645,$479000,for_sale,$20000,"baths_consolidated: 1, type: coop, sub_type: co_op, sold_date: 2016-10-17",407 Park Avenue Ave SSOUTH Unit 24C,10016,New York,NY,Manhattan,40.743373,-73.983626,https://www.realtor.com/realestateandhomes-detail/407-Park-Ave-S-Apt-24C_New-York_NY_10016_M49256-79645
137-E-36th-St-15F_New-York_NY_10016_M98644-44622,$1495000,for_sale,,"baths_consolidated: 2.5, type: coop, sub_type: co_op, sold_date: 2012-09-26",137 E 36th St Unit 15F,10016,New York,NY,Manhattan,40.747758,-73.978376,https://www.realtor.com/realestateandhomes-detail/137-E-36th-St-15F_New-York_NY_10016_M98644-44622
210-E-36th-St-Apt-11E_New-York_NY_10016_M94918-35043,$529000,for_sale,$10000,"baths_consolidated: 1, type: coop, sub_type: co_op",210 E 36th St Apt 11E,10016,New York,NY,New York,40.746632,-73.976585,https://www.realtor.com/realestateandhomes-detail/210-E-36th-St-Apt-11E_New-York_NY_10016_M94918-35043
35-E-38th-St-Ph-B_New-York_NY_10016_M31543-09589,$825000,for_sale,,"baths_consolidated: 1, type: condos, sub_type: condo, sold_date: 1979-07-31",35 E 38th St Ph B,10016,New York,NY,New York,40.750058,-73.979999,https://www.realtor.com/realestateandhomes-detail/35-E-38th-St-Ph-B_New-York_NY_10016_M31543-09589
630-1st-Ave-14KL_New-York_NY_10016_M93835-31007,$1895000,for_sale,$104950,"baths_consolidated: 2.5, type: condos, sub_type: condo",630 First Kl Ave Unit 14,10016,New York,NY,New York,40.745155,-73.971832,https://www.realtor.com/realestateandhomes-detail/630-1st-Ave-14KL_New-York_NY_10016_M93835-31007
305-E-40th-St-Apt-5F_New-York_NY_10016_M38014-55030,$650000,for_sale,$25000,"baths_consolidated: 1, type: coop, sub_type: co_op, sold_date: 2014-12-30",305 E 40th St Apt 5F,10016,New York,NY,Manhattan,40.74856,-73.972497,https://www.realtor.com/realestateandhomes-detail/305-E-40th-St-Apt-5F_New-York_NY_10016_M38014-55030
11-E-29th-St-Apt-36A_New-York_NY_10016_M48133-42426,$2895000,for_sale,$100000,"baths_consolidated: 2.5, type: condos, sub_type: condo, sold_date: 2009-11-16",11 E 29th St Apt 36A,10016,New York,NY,New York,40.744934,-73.985603,https://www.realtor.com/realestateandhomes-detail/11-E-29th-St-Apt-36A_New-York_NY_10016_M48133-42426
303-E-33rd-St-Apt-4F_New-York_NY_10016_M34599-74267,$1100000,for_sale,,"baths_consolidated: 1, type: condos, sub_type: condo, sold_date: 2011-10-25",303 E 33rd St Apt 4F,10016,New York,NY,Manhattan,40.743973,-73.975471,https://www.realtor.com/realestateandhomes-detail/303-E-33rd-St-Apt-4F_New-York_NY_10016_M34599-74267
200-E-36th-St-Apt-3J_New-York_NY_10016_M43541-99384,$389888,for_sale,,"baths_consolidated: 1, type: coop, sub_type: co_op",200 E 36th St Apt 3J,10016,New York,NY,New York,40.746705,-73.976954,https://www.realtor.com/realestateandhomes-detail/200-E-36th-St-Apt-3J_New-York_NY_10016_M43541-99384
111-E-36th-St-Apt-5A_New-York_NY_10016_M37117-28330,$675000,for_sale,,"baths_consolidated: 1, type: coop, sub_type: co_op, sold_date: 2021-12-10",111 E 36th St Apt 5A,10016,New York,NY,New York,40.748241,-73.979519,https://www.realtor.com/realestateandhomes-detail/111-E-36th-St-Apt-5A_New-York_NY_10016_M37117-28330
30-E-29th-St-Apt-9A_New-York_NY_10016_M91895-16445,$2600000,for_sale,$100000,"baths_consolidated: 2, type: condos, sub_type: condo, sold_date: 2021-11-19",30 E 29th St Apt 9A,10016,New York,NY,New York,40.744164,-73.984718,https://www.realtor.com/realestateandhomes-detail/30-E-29th-St-Apt-9A_New-York_NY_10016_M91895-16445
160-E-38th-St-Apt-24D_New-York_NY_10016_M37129-20840,$925000,for_sale,$75000,"baths_consolidated: 1.5, type: coop, sub_type: co_op",160 E 38th St Apt 24D,10016,New York,NY,Manhattan,40.748094,-73.976864,https://www.realtor.com/realestateandhomes-detail/160-E-38th-St-Apt-24D_New-York_NY_10016_M37129-20840
591-3rd-Ave-A5_New-York_NY_10016_M34942-96137,$1499000,for_sale,$99000,"baths_consolidated: 1, type: condos, sub_type: condo",591 3rd Ave Unit 5A,10016,New York,NY,Manhattan,40.748509,-73.97587,https://www.realtor.com/realestateandhomes-detail/591-3rd-Ave-A5_New-York_NY_10016_M34942-96137
330-E-38th-St-Apt-36D_New-York_NY_10016_M33481-66321,$1975000,for_sale,,"baths_consolidated: 2, type: condos, sub_type: condo, sold_date: 2018-05-11",330 E 38th St Apt 36D,10016,New York,NY,New York,40.746328,-73.972718,https://www.realtor.com/realestateandhomes-detail/330-E-38th-St-Apt-36D_New-York_NY_10016_M33481-66321
229-E-28th-St-Apt-6C_New-York_NY_10016_M99565-40046,$399000,for_sale,,"baths_consolidated: 1, type: coop, sub_type: co_op",229 E 28th St Apt 6C,10016,New York,NY,New York,40.741486,-73.979424,https://www.realtor.com/realestateandhomes-detail/229-E-28th-St-Apt-6C_New-York_NY_10016_M99565-40046
649-2nd-Ave-Apt-3A_New-York_NY_10016_M45944-22163,$325000,for_sale,$25000,"baths_consolidated: 1, type: coop, sub_type: co_op, sold_date: 2015-06-15",649 Second Ave Unit 3A,10016,New York,NY,New York,40.745861,-73.975319,https://www.realtor.com/realestateandhomes-detail/649-2nd-Ave-Apt-3A_New-York_NY_10016_M45944-22163
330-E-38th-St-Apt-25K_New-York_NY_10016_M37454-77396,$1491300,for_sale,,"baths_consolidated: 2, type: condos, sub_type: condo",330 E 38th St Apt 25K,10016,New York,NY,New York,40.746328,-73.972718,https://www.realtor.com/realestateandhomes-detail/330-E-38th-St-Apt-25K_New-York_NY_10016_M37454-77396
35-Park-Ave-Apt-11A_New-York_NY_10016_M96101-23839,$650000,for_sale,$25000,"baths_consolidated: 1, type: coop, sub_type: co_op",35 Park Avenue Ave Unit 11A,10016,New York,NY,Manhattan,40.74802,-73.980324,https://www.realtor.com/realestateandhomes-detail/35-Park-Ave-Apt-11A_New-York_NY_10016_M96101-23839
35-E-38th-St-Apt-1A_New-York_NY_10016_M31504-33931,$850000,for_sale,$50000,"baths_consolidated: 1, type: condos, sub_type: condo, sold_date: 2020-09-15",35 E 38th St Apt 1A,10016,New York,NY,Manhattan,40.750058,-73.979999,https://www.realtor.com/realestateandhomes-detail/35-E-38th-St-Apt-1A_New-York_NY_10016_M31504-33931
220-Madison-Ave-Apt-5A_New-York_NY_10016_M40621-48855,$1595000,for_sale,$54000,"baths_consolidated: 2, type: coop, sub_type: co_op, sold_date: 2011-05-26",220 Madison Ave Apt 5A,10016,New York,NY,New York,40.74956,-73.982064,https://www.realtor.com/realestateandhomes-detail/220-Madison-Ave-Apt-5A_New-York_NY_10016_M40621-48855
155-E-34th-St-Apt-8N_New-York_NY_10016_M45948-63087,$699000,for_sale,,"baths_consolidated: 1, type: condos, sub_type: condo, sold_date: 2020-02-19",155 E 34th St Apt 8N,10016,New York,NY,New York,40.7462,-73.978528,https://www.realtor.com/realestateandhomes-detail/155-E-34th-St-Apt-8N_New-York_NY_10016_M45948-63087
114-E-36th-St-1_New-York_NY_10016_M30517-56650,$1995000,for_sale,$105000,"baths_consolidated: 2.5, type: coop, sub_type: co_op, sold_date: 2016-08-05",114 E 36th St Unit 1,10016,New York,NY,Manhattan,40.747831,-73.979716,https://www.realtor.com/realestateandhomes-detail/114-E-36th-St-1_New-York_NY_10016_M30517-56650
123-E-37th-St-9F_New-York_NY_10016_M96667-48690,$375000,for_sale,$20000,"baths_consolidated: 1, type: coop, sub_type: co_op",123 E 37th St Unit 9F,10016,New York,NY,Manhattan,40.748497,-73.978539,https://www.realtor.com/realestateandhomes-detail/123-E-37th-St-9F_New-York_NY_10016_M96667-48690
245-E-35th-St-Apt-5D_New-York_NY_10016_M38474-66057,$495000,for_sale,$30000,"baths_consolidated: 1, type: coop, sub_type: co_op, sold_date: 2010-05-10",245 E 35th St Apt 5D,10016,New York,NY,Manhattan,40.745901,-73.975896,https://www.realtor.com/realestateandhomes-detail/245-E-35th-St-Apt-5D_New-York_NY_10016_M38474-66057
210-E-36th-St-Apt-8D_New-York_NY_10016_M39050-54227,$415000,for_sale,,"baths_consolidated: 1, type: coop, sub_type: co_op, sold_date: 2011-03-04",210 E 36th St Apt 8D,10016,New York,NY,New York,40.74654,-73.976653,https://www.realtor.com/realestateandhomes-detail/210-E-36th-St-Apt-8D_New-York_NY_10016_M39050-54227
201-E-28th-St-14S_New-York_NY_10016_M97576-42773,$699000,for_sale,,"baths_consolidated: 1, type: coop, sub_type: co_op, sold_date: 2022-05-20",201 E 28th St Unit 14S,10016,New York,NY,New York,40.741875,-73.980286,https://www.realtor.com/realestateandhomes-detail/201-E-28th-St-14S_New-York_NY_10016_M97576-42773
201-E-28th-St-R5_New-York_NY_10016_M47831-74498,$640000,for_sale,,"baths_consolidated: 1, type: coop, sub_type: co_op, sold_date: 2009-07-30",201 E 28th St Unit 5R,10016,New York,NY,Manhattan,40.742013,-73.980276,https://www.realtor.com/realestateandhomes-detail/201-E-28th-St-R5_New-York_NY_10016_M47831-74498
220-Madison-Ave-Apt-11M_New-York_NY_10016_M90651-45570,$1475000,for_sale,,"baths_consolidated: 2, type: coop, sub_type: co_op",220 Madison Ave Apt 11M,10016,New York,NY,New York,40.749466,-73.981918,https://www.realtor.com/realestateandhomes-detail/220-Madison-Ave-Apt-11M_New-York_NY_10016_M90651-45570
15-E-30th-St-Apt-17A_New-York_NY_10016_M95924-48391,$1875000,for_sale,,"baths_consolidated: 1, type: condos, sub_type: condo",15 E 30th St Apt 17A,10016,New York,NY,New York,40.745701,-73.985168,https://www.realtor.com/realestateandhomes-detail/15-E-30th-St-Apt-17A_New-York_NY_10016_M95924-48391
172-Madison-Ave-Fl-22B_New-York_NY_10016_M91403-39242,$2950000,for_sale,,"baths_consolidated: 2.5, type: condos, sub_type: condo",172 Madison Ave Fl 22B,10016,New York,NY,New York,40.747375,-73.983543,https://www.realtor.com/realestateandhomes-detail/172-Madison-Ave-Fl-22B_New-York_NY_10016_M91403-39242
132-E-35th-St-6J_New-York_NY_10016_M90445-98614,$975000,for_sale,,"baths_consolidated: 1.5, type: coop, sub_type: co_op",132 E 35th St Unit 6J,10016,New York,NY,Manhattan,40.746872,-73.979691,https://www.realtor.com/realestateandhomes-detail/132-E-35th-St-6J_New-York_NY_10016_M90445-98614
333-E-34th-St-Apt-6H_New-York_NY_10016_M49342-63591,$849500,for_sale,,"baths_consolidated: 1, type: condos, sub_type: condo",333 E 34th St Apt 6H,10016,New York,NY,New York,40.744363,-73.97416,https://www.realtor.com/realestateandhomes-detail/333-E-34th-St-Apt-6H_New-York_NY_10016_M49342-63591
127-Madison-Ave-Apt-2_New-York_NY_10016_M49175-75267,$1895000,for_sale,,"baths_consolidated: 2, type: condos, sub_type: condo, sold_date: 2018-01-11",127 Madison Ave Apt 2,10016,New York,NY,Manhattan,40.745502,-73.984428,https://www.realtor.com/realestateandhomes-detail/127-Madison-Ave-Apt-2_New-York_NY_10016_M49175-75267
30-E-31st-St-A2_New-York_NY_10016_M34287-08262,$1495000,for_sale,$100000,"baths_consolidated: 1.5, type: condos, sub_type: condo, sold_date: 2021-05-24",30 E 31st St # 2A,10016,New York,NY,New York,40.745457,-73.983948,https://www.realtor.com/realestateandhomes-detail/30-E-31st-St-A2_New-York_NY_10016_M34287-08262
330-E-33rd-St-Apt-5E_New-York_NY_10016_M37064-05752,$750000,for_sale,,"baths_consolidated: 1, type: condos, sub_type: condo, sold_date: 2005-01-18",330 E 33rd St Apt 5E,10016,New York,NY,New York,40.742673,-73.975706,https://www.realtor.com/realestateandhomes-detail/330-E-33rd-St-Apt-5E_New-York_NY_10016_M37064-05752
160-E-38th-St-Apt-26D_New-York_NY_10016_M37093-05281,$1045000,for_sale,$50000,"baths_consolidated: 1.5, type: coop, sub_type: co_op, sold_date: 2009-06-30",160 E 38th St Apt 26D,10016,New York,NY,Manhattan,40.748094,-73.976864,https://www.realtor.com/realestateandhomes-detail/160-E-38th-St-Apt-26D_New-York_NY_10016_M37093-05281
325-5th-Ave-Apt-36A_New-York_NY_10016_M38947-46601,$2649000,for_sale,,"baths_consolidated: 3, type: condos, sub_type: condo, sold_date: 2013-12-23",325 Fifth Ave Unit 36A,10016,New York,NY,Manhattan,40.74733,-73.984857,https://www.realtor.com/realestateandhomes-detail/325-5th-Ave-Apt-36A_New-York_NY_10016_M38947-46601
330-E-38th-St-Apt-11L_New-York_NY_10016_M37904-24006,$1499999,for_sale,$1,"baths_consolidated: 2, type: condos, sub_type: condo, sold_date: 2014-11-22",330 E 38th St Apt 11L,10016,New York,NY,New York,40.746328,-73.972718,https://www.realtor.com/realestateandhomes-detail/330-E-38th-St-Apt-11L_New-York_NY_10016_M37904-24006
41-E-28th-St-Apt-7C_New-York_NY_10016_M45008-72571,$1695000,for_sale,$100000,"baths_consolidated: 2, type: coop, sub_type: co_op",41 E 28th St Apt 7C,10016,New York,NY,New York,40.743698,-73.984543,https://www.realtor.com/realestateandhomes-detail/41-E-28th-St-Apt-7C_New-York_NY_10016_M45008-72571
20-E-35th-St-Apt-8N_New-York_NY_10016_M33077-98256,$790000,for_sale,$49000,"baths_consolidated: 1, type: coop, sub_type: co_op, sold_date: 2010-02-25",20 E 35th St Apt 8N,10016,New York,NY,New York,40.748238,-73.982262,https://www.realtor.com/realestateandhomes-detail/20-E-35th-St-Apt-8N_New-York_NY_10016_M33077-98256
165-Lexington-Ave-Apt-2B_New-York_NY_10016_M92706-48895,$850000,for_sale,$25000,"baths_consolidated: 1, type: condos, sub_type: condo",165 Lexington Ave Apt 2B,10016,New York,NY,New York,40.743969,-73.981148,https://www.realtor.com/realestateandhomes-detail/165-Lexington-Ave-Apt-2B_New-York_NY_10016_M92706-48895
311-E-38th-St-Apt-3E_New-York_NY_10016_M32404-21035,$675000,for_sale,,"baths_consolidated: 1.5, type: condos, sub_type: condo, sold_date: 2009-12-29",311 E 38th St Apt 3E,10016,New York,NY,New York,40.747242,-73.973217,https://www.realtor.com/realestateandhomes-detail/311-E-38th-St-Apt-3E_New-York_NY_10016_M32404-21035
160-E-38th-St-Apt-16B_New-York_NY_10016_M43911-56561,$1100000,for_sale,,"baths_consolidated: 1.5, type: coop, sub_type: co_op, sold_date: 2015-08-05",160 E 38th St Apt 16B,10016,New York,NY,New York,40.748094,-73.976864,https://www.realtor.com/realestateandhomes-detail/160-E-38th-St-Apt-16B_New-York_NY_10016_M43911-56561
345-E-37th-St-Rm-201_New-York_NY_10016_M94893-39058,$2495000,for_sale,,"baths_consolidated: 3, type: condos, sub_type: condo, sold_date: 2018-05-22",345 E 37th St Rm 201,10016,New York,NY,Manhattan,40.746328,-73.972718,https://www.realtor.com/realestateandhomes-detail/345-E-37th-St-Rm-201_New-York_NY_10016_M94893-39058
88-Lexington-Ave-Apt-501_New-York_NY_10016_M45727-23018,$2600000,for_sale,,"baths_consolidated: 2.5, type: condos, sub_type: condo",88 Lexington Ave Apt 501,10016,New York,NY,New York,40.741714,-73.983513,https://www.realtor.com/realestateandhomes-detail/88-Lexington-Ave-Apt-501_New-York_NY_10016_M45727-23018
303-E-33rd-St-Apt-10C_New-York_NY_10016_M34618-37564,$1395000,for_sale,,"baths_consolidated: 1, type: condos, sub_type: condo, sold_date: 2011-07-19",303 E 33rd St Apt 10C,10016,New York,NY,New York,40.743931,-73.975677,https://www.realtor.com/realestateandhomes-detail/303-E-33rd-St-Apt-10C_New-York_NY_10016_M34618-37564
135-E-39th-St-Apt-4B_New-York_NY_10016_M37131-44436,$375000,for_sale,,"baths_consolidated: 1, type: coop, sub_type: co_op, sold_date: 2016-04-04",135 E 39th St Apt 4B,10016,New York,NY,New York,40.749522,-73.976766,https://www.realtor.com/realestateandhomes-detail/135-E-39th-St-Apt-4B_New-York_NY_10016_M37131-44436
407-Park-Ave-S-Apt-6C_New-York_NY_10016_M99724-09633,$490000,for_sale,,"baths_consolidated: 1, type: coop, sub_type: co_op",407 Park Ave S Unit C6,10016,New York,NY,Manhattan,40.743324,-73.983696,https://www.realtor.com/realestateandhomes-detail/407-Park-Ave-S-Apt-6C_New-York_NY_10016_M99724-09633
128-E-28th-St-A_New-York_NY_10016_M98092-50814,$3995000,for_sale,$405000,"baths_consolidated: 3.5, type: condos, sub_type: condo",128 E 28th St # A,10016,New York,NY,Manhattan,40.742641,-73.983025,https://www.realtor.com/realestateandhomes-detail/128-E-28th-St-A_New-York_NY_10016_M98092-50814
200-E-27th-St-Apt-12B_New-York_NY_10016_M34635-47609,$730000,for_sale,$19900,"baths_consolidated: 1, type: coop, sub_type: co_op, sold_date: 2011-09-12",200 E 27th St Apt 12B,10016,New York,NY,New York,40.7409,-73.980943,https://www.realtor.com/realestateandhomes-detail/200-E-27th-St-Apt-12B_New-York_NY_10016_M34635-47609
155-E-38th-St-Apt-21D_New-York_NY_10016_M31871-40885,$1550000,for_sale,$150000,"baths_consolidated: 2, type: condos, sub_type: condo, sold_date: 2014-06-20",155 E 38th St Apt 21D,10016,New York,NY,New York,40.748586,-73.976481,https://www.realtor.com/realestateandhomes-detail/155-E-38th-St-Apt-21D_New-York_NY_10016_M31871-40885
300-E-40th-St-Apt-30T_New-York_NY_10016_M38908-38324,$1295000,for_sale,$55000,"baths_consolidated: 1.5, type: single_family, sold_date: 2023-05-15",300 E 40th St Apt 30T,10016,New York,NY,New York,40.748003,-73.972835,https://www.realtor.com/realestateandhomes-detail/300-E-40th-St-Apt-30T_New-York_NY_10016_M38908-38324
15-E-30th-St-Apt-19C_New-York_NY_10016_M98735-77685,$3275000,for_sale,$150000,"baths_consolidated: 2, type: condos, sub_type: condo",15 E 30th St Apt 19C,10016,New York,NY,New York,40.745701,-73.985168,https://www.realtor.com/realestateandhomes-detail/15-E-30th-St-Apt-19C_New-York_NY_10016_M98735-77685
88-Lexington-Ave-Apt-1007_New-York_NY_10016_M41148-45647,$2795000,for_sale,,"baths_consolidated: 2.5, type: condos, sub_type: condo",88 Lexington Ave Apt 1007,10016,New York,NY,New York,40.741714,-73.983513,https://www.realtor.com/realestateandhomes-detail/88-Lexington-Ave-Apt-1007_New-York_NY_10016_M41148-45647
330-E-38th-St-Apt-23E_New-York_NY_10016_M33189-12556,$1750000,for_sale,$50000,"baths_consolidated: 2, type: condos, sub_type: condo, sold_date: 2016-03-22",330 E 38th St Apt 23E,10016,New York,NY,New York,40.746328,-73.972718,https://www.realtor.com/realestateandhomes-detail/330-E-38th-St-Apt-23E_New-York_NY_10016_M33189-12556
145-Lexington-Ave-Apt-7_New-York_NY_10016_M39627-19680,$1675000,for_sale,$150000,"baths_consolidated: 2, type: condos, sub_type: condo, sold_date: 2022-11-09",145 Lexington Ave Apt 7,10016,New York,NY,Manhattan,40.74345,-73.981689,https://www.realtor.com/realestateandhomes-detail/145-Lexington-Ave-Apt-7_New-York_NY_10016_M39627-19680
200-E-27th-St-7M6M_New-York_NY_10016_M97783-33119,$1250000,for_sale,,"baths_consolidated: 2, type: coop, sub_type: co_op",200 E 27th St Units 7M & 6M,10016,New York,NY,New York,40.741196,-73.981201,https://www.realtor.com/realestateandhomes-detail/200-E-27th-St-7M6M_New-York_NY_10016_M97783-33119
35-E-30th-St-Apt-9A_New-York_NY_10016_M99519-44039,$1495000,for_sale,,"baths_consolidated: 2, type: coop, sub_type: co_op",35 E 30th St Apt 9A,10016,New York,NY,New York,40.745003,-73.983963,https://www.realtor.com/realestateandhomes-detail/35-E-30th-St-Apt-9A_New-York_NY_10016_M99519-44039
415-E-37th-St-30AC_New-York_NY_10016_M97693-21119,$3495000,for_sale,,"baths_consolidated: 3.5, type: condos, sub_type: condo",415 E 37th St # 30AC,10016,New York,NY,New York,40.745487,-73.97139,https://www.realtor.com/realestateandhomes-detail/415-E-37th-St-30AC_New-York_NY_10016_M97693-21119
200-E-27th-St-Apt-8K_New-York_NY_10016_M38375-14462,$899000,for_sale,$51000,"baths_consolidated: 1, type: coop, sub_type: co_op, sold_date: 2007-03-27",200 E 27th St Apt 8K,10016,New York,NY,New York,40.7409,-73.980943,https://www.realtor.com/realestateandhomes-detail/200-E-27th-St-Apt-8K_New-York_NY_10016_M38375-14462
66-Madison-Ave-Apt-11F_New-York_NY_10016_M45835-32680,$699000,for_sale,,"baths_consolidated: 1, type: coop, sub_type: co_op, sold_date: 2017-02-13",66 Madison Ave Apt 11F,10016,New York,NY,New York,40.743744,-73.986353,https://www.realtor.com/realestateandhomes-detail/66-Madison-Ave-Apt-11F_New-York_NY_10016_M45835-32680
165-E-32nd-St-Apt-6C_New-York_NY_10016_M42010-39022,$495000,for_sale,,"baths_consolidated: 1, type: coop, sub_type: co_op, sold_date: 2007-04-04",165 E 32nd St Apt 6C,10016,New York,NY,New York,40.744762,-73.979226,https://www.realtor.com/realestateandhomes-detail/165-E-32nd-St-Apt-6C_New-York_NY_10016_M42010-39022
305-E-40th-St-Apt-6E_New-York_NY_10016_M37788-44293,$499000,for_sale,,"baths_consolidated: 1, type: coop, sub_type: co_op",305 E 40th St Apt 6E,10016,New York,NY,New York,40.74856,-73.972497,https://www.realtor.com/realestateandhomes-detail/305-E-40th-St-Apt-6E_New-York_NY_10016_M37788-44293
200-E-36th-St-Apt-12F_New-York_NY_10016_M45808-95145,$459000,for_sale,,"baths_consolidated: 1, type: coop, sub_type: co_op, sold_date: 2020-10-01",200 E 36th St Apt 12F,10016,New York,NY,New York,40.746705,-73.976954,https://www.realtor.com/realestateandhomes-detail/200-E-36th-St-Apt-12F_New-York_NY_10016_M45808-95145
229-E-28th-St-Apt-5B_New-York_NY_10016_M34409-18223,$365000,for_sale,$10000,"baths_consolidated: 1, type: coop, sub_type: co_op, sold_date: 2016-08-15",229 E 28th St Apt 5B,10016,New York,NY,New York,40.741579,-73.979352,https://www.realtor.com/realestateandhomes-detail/229-E-28th-St-Apt-5B_New-York_NY_10016_M34409-18223
20-E-35th-St-Apt-5E_New-York_NY_10016_M45272-56859,$750000,for_sale,,"baths_consolidated: 1, type: coop, sub_type: co_op, sold_date: 2022-06-24",20 E 35th St Apt 5E,10016,New York,NY,Manhattan,40.748238,-73.982262,https://www.realtor.com/realestateandhomes-detail/20-E-35th-St-Apt-5E_New-York_NY_10016_M45272-56859
138-E-36th-St-Apt-5B_New-York_NY_10016_M99659-77620,$700000,for_sale,,"baths_consolidated: 1, type: coop, sub_type: co_op",138 E 36th St Apt 5B,10016,New York,NY,Manhattan,40.747383,-73.978333,https://www.realtor.com/realestateandhomes-detail/138-E-36th-St-Apt-5B_New-York_NY_10016_M99659-77620
15-E-30th-St-Apt-51B_New-York_NY_10016_M95715-96679,$5300000,for_sale,,"baths_consolidated: 2.5, type: condos, sub_type: condo",15 E 30th St Apt 51B,10016,New York,NY,New York,40.745701,-73.985168,https://www.realtor.com/realestateandhomes-detail/15-E-30th-St-Apt-51B_New-York_NY_10016_M95715-96679
400-Park-Ave-S-Apt-36C_New-York_NY_10016_M49974-58740,$4595000,for_sale,$200000,"baths_consolidated: 2.5, type: condos, sub_type: condo, sold_date: 2016-11-07",400 Park Ave S Apt 36C,10016,New York,NY,Manhattan,40.743257,-73.984613,https://www.realtor.com/realestateandhomes-detail/400-Park-Ave-S-Apt-36C_New-York_NY_10016_M49974-58740
308-E-38th-St-B21-22_New-York_NY_10016_M38603-73339,$900000,for_sale,$95000,"baths_consolidated: 1, type: condos, sub_type: condo",308 E 38th St Units 21 & 22B,10016,New York,NY,New York,40.746802,-73.973504,https://www.realtor.com/realestateandhomes-detail/308-E-38th-St-B21-22_New-York_NY_10016_M38603-73339
145-Lexington-Ave-Ph-3_New-York_NY_10016_M92173-14195,$1650000,for_sale,$150000,"baths_consolidated: 2, type: condos, sub_type: condo",145 Lexington Ave Unit 3,10016,New York,NY,Manhattan,40.743385,-73.981598,https://www.realtor.com/realestateandhomes-detail/145-Lexington-Ave-Ph-3_New-York_NY_10016_M92173-14195
241-E-31st-St-2_New-York_NY_10016_M93542-81399,$1295000,for_sale,,"baths_consolidated: 2, type: coop, sub_type: co_op",241 E 31st St # 2,10016,New York,NY,New York,40.743332,-73.977844,https://www.realtor.com/realestateandhomes-detail/241-E-31st-St-2_New-York_NY_10016_M93542-81399
10-Park-Ave-K7_New-York_NY_10016_M40007-07985,$775000,for_sale,,"baths_consolidated: 1, type: coop, sub_type: co_op",10 Park Ave Unit 7K,10016,New York,NY,New York,40.747494,-73.981499,https://www.realtor.com/realestateandhomes-detail/10-Park-Ave-K7_New-York_NY_10016_M40007-07985
181-E-28th-St-Apt-203_New-York_NY_10016_M96595-23575,$1395000,for_sale,,"baths_consolidated: 1, type: condos, sub_type: condo",181 E 28th St Apt 203,10016,New York,NY,New York,40.622665,-73.993401,https://www.realtor.com/realestateandhomes-detail/181-E-28th-St-Apt-203_New-York_NY_10016_M96595-23575
128-E-28th-St-Fl-3_New-York_NY_10016_M92675-18127,$1975000,for_sale,,"baths_consolidated: 2, type: condos, sub_type: condo",128 E 28th St Unit 3B,10016,New York,NY,Manhattan,40.74271,-73.982933,https://www.realtor.com/realestateandhomes-detail/128-E-28th-St-Fl-3_New-York_NY_10016_M92675-18127
80-Park-Ave-Apt-10B_New-York_NY_10016_M31585-20641,$699900,for_sale,,"baths_consolidated: 1, type: condos, sub_type: condo, sold_date: 1986-05-01",80 Park Avenue Ave Unit 10B,10016,New York,NY,Manhattan,40.750207,-73.979654,https://www.realtor.com/realestateandhomes-detail/80-Park-Ave-Apt-10B_New-York_NY_10016_M31585-20641
12173-Allard-St_Norwalk_CA_90650_M13820-47942,$600000,for_sale,,"baths_consolidated: 2, type: single_family, sold_date: 1972-02-23",12173 Allard St,90650,California,CA,Norwalk,33.923225,-118.073057,https://www.realtor.com/realestateandhomes-detail/12173-Allard-St_Norwalk_CA_90650_M13820-47942
12620-Curtis-and-King-Rd_Norwalk_CA_90650_M23363-96783,$675000,for_sale,$10000,"baths_consolidated: 3.5, type: condos, sub_type: condo, sold_date: 2020-04-07",12620 Curtis and King Rd,90650,California,CA,Norwalk,33.916457,-118.107572,https://www.realtor.com/realestateandhomes-detail/12620-Curtis-and-King-Rd_Norwalk_CA_90650_M23363-96783
10839-Pluton-St_Norwalk_CA_90650_M12591-82129,$749999,for_sale,,"baths_consolidated: 2, type: single_family, sold_date: 2018-12-14",10839 Pluton St,90650,California,CA,Norwalk,33.929236,-118.101851,https://www.realtor.com/realestateandhomes-detail/10839-Pluton-St_Norwalk_CA_90650_M12591-82129
12107-Molette-St_Norwalk_CA_90650_M16580-65405,$683000,for_sale,,"baths_consolidated: 2, type: single_family, sold_date: 2003-12-24",12107 Molette St,90650,California,CA,Norwalk,33.891981,-118.075043,https://www.realtor.com/realestateandhomes-detail/12107-Molette-St_Norwalk_CA_90650_M16580-65405
13308-Volunteer-Ave_Norwalk_CA_90650_M25570-80374,$699000,for_sale,,"baths_consolidated: 2, type: single_family",13308 Volunteer Ave,90650,California,CA,Norwalk,33.910169,-118.06678,https://www.realtor.com/realestateandhomes-detail/13308-Volunteer-Ave_Norwalk_CA_90650_M25570-80374
12028-Piuma-Ave_Norwalk_CA_90650_M15175-59747,$849000,for_sale,,"baths_consolidated: 2.5, type: single_family, sold_date: 2023-05-10",12028 Piuma Ave,90650,California,CA,Norwalk,33.922824,-118.105191,https://www.realtor.com/realestateandhomes-detail/12028-Piuma-Ave_Norwalk_CA_90650_M15175-59747
10612-Meadow-Rd_Norwalk_CA_90650_M13259-62698,$699999,for_sale,,"baths_consolidated: 2, type: single_family",10612 Meadow Rd,90650,California,CA,Norwalk,33.918575,-118.107423,https://www.realtor.com/realestateandhomes-detail/10612-Meadow-Rd_Norwalk_CA_90650_M13259-62698
12928-Sycamore-Village-Dr_Norwalk_CA_90650_M25446-33549,$474999,for_sale,,"baths_consolidated: 2, type: condos, sub_type: condo, sold_date: 1989-06-30",12928 Sycamore Village Dr,90650,California,CA,Norwalk,33.912938,-118.069767,https://www.realtor.com/realestateandhomes-detail/12928-Sycamore-Village-Dr_Norwalk_CA_90650_M25446-33549
12012-Cedarvale-St_Norwalk_CA_90650_M28740-77780,$735000,for_sale,,"baths_consolidated: 2, type: single_family, sold_date: 1978-07-31",12012 Cedarvale St,90650,California,CA,Norwalk,33.881388,-118.076583,https://www.realtor.com/realestateandhomes-detail/12012-Cedarvale-St_Norwalk_CA_90650_M28740-77780
14505-Marilla-Ave_Norwalk_CA_90650_M17281-29380,$699900,for_sale,,"baths_consolidated: 2, type: single_family",14505 Marilla Ave,90650,California,CA,Norwalk,33.899476,-118.047755,https://www.realtor.com/realestateandhomes-detail/14505-Marilla-Ave_Norwalk_CA_90650_M17281-29380
13225-San-Antonio-Dr_Norwalk_CA_90650_M91645-95766,$714999,for_sale,,"baths_consolidated: 4, type: condos, sub_type: condo",13225 San Antonio Dr,90650,California,CA,Norwalk,33.910585,-118.075036,https://www.realtor.com/realestateandhomes-detail/13225-San-Antonio-Dr_Norwalk_CA_90650_M91645-95766
11420-Belcher-St_Norwalk_CA_90650_M25418-01338,$599900,for_sale,,"baths_consolidated: 1, type: single_family, sold_date: 2021-07-07",11420 Belcher St,90650,California,CA,Norwalk,33.910513,-118.090414,https://www.realtor.com/realestateandhomes-detail/11420-Belcher-St_Norwalk_CA_90650_M25418-01338
12215-Summer-Ave_Norwalk_CA_90650_M13803-70974,$825000,for_sale,,"baths_consolidated: 1, type: single_family, sold_date: 2022-03-07",12215 Summer Ave,90650,California,CA,Norwalk,33.920262,-118.089916,https://www.realtor.com/realestateandhomes-detail/12215-Summer-Ave_Norwalk_CA_90650_M13803-70974
13008-Avonlea-Ave_Norwalk_CA_90650_M25648-68956,$724000,for_sale,,"baths_consolidated: 1, type: single_family",13008 Avonlea Ave,90650,California,CA,Norwalk,33.912746,-118.066389,https://www.realtor.com/realestateandhomes-detail/13008-Avonlea-Ave_Norwalk_CA_90650_M25648-68956
12055-Orange-St_Norwalk_CA_90650_M28833-06435,$1090000,for_sale,$69900,"baths_consolidated: 4, type: multi_family, sold_date: 2021-06-10",12055 Orange St,90650,California,CA,Norwalk,33.902923,-118.076886,https://www.realtor.com/realestateandhomes-detail/12055-Orange-St_Norwalk_CA_90650_M28833-06435
14063-Bayside-Dr_Norwalk_CA_90650_M27584-65527,$429000,for_sale,,"baths_consolidated: 1, type: condos, sub_type: condo, sold_date: 2018-03-05",14063 Bayside Dr,90650,California,CA,Norwalk,33.903462,-118.107005,https://www.realtor.com/realestateandhomes-detail/14063-Bayside-Dr_Norwalk_CA_90650_M27584-65527
14346-Pontlavoy-Ave_Norwalk_CA_90650_M11339-57190,$650000,for_sale,,"baths_consolidated: 1, type: single_family",14346 Pontlavoy Ave,90650,California,CA,Norwalk,33.900949,-118.048947,https://www.realtor.com/realestateandhomes-detail/14346-Pontlavoy-Ave_Norwalk_CA_90650_M11339-57190
15723-Cameo-Ave_Norwalk_CA_90650_M16260-16695,$699999,for_sale,,"baths_consolidated: 2, type: single_family, sold_date: 1991-04-09",15723 Cameo Ave,90650,California,CA,Norwalk,33.88831,-118.068029,https://www.realtor.com/realestateandhomes-detail/15723-Cameo-Ave_Norwalk_CA_90650_M16260-16695
11532-Tina-St_Norwalk_CA_90650_M12976-40582,$739000,for_sale,,"baths_consolidated: 2, type: single_family, sold_date: 1970-11-10",11532 Tina St,90650,California,CA,Norwalk,33.925754,-118.087382,https://www.realtor.com/realestateandhomes-detail/11532-Tina-St_Norwalk_CA_90650_M12976-40582
11811-Cheshire-St_Norwalk_CA_90650_M15527-14586,$629999,for_sale,,"baths_consolidated: 2, type: single_family",11811 Cheshire St,90650,California,CA,Norwalk,33.890618,-118.08194,https://www.realtor.com/realestateandhomes-detail/11811-Cheshire-St_Norwalk_CA_90650_M15527-14586
12137-Cheshire-St_Norwalk_CA_90650_M16414-82061,$640000,for_sale,,"baths_consolidated: 2, type: single_family, sold_date: 2015-05-05",12137 Cheshire St,90650,California,CA,Norwalk,33.890626,-118.074084,https://www.realtor.com/realestateandhomes-detail/12137-Cheshire-St_Norwalk_CA_90650_M16414-82061
11312-Flallon-Ave_Norwalk_CA_90650_M11822-27958,$785000,for_sale,,"baths_consolidated: 2.5, type: single_family, sold_date: 2011-04-08",11312 Flallon Ave,90650,California,CA,Norwalk,33.928578,-118.08416,https://www.realtor.com/realestateandhomes-detail/11312-Flallon-Ave_Norwalk_CA_90650_M11822-27958
12109-Kalnor-Ave_Norwalk_CA_90650_M14892-99324,$599000,for_sale,,"baths_consolidated: 1.5, type: single_family, sold_date: 1964-06-30",12109 Kalnor Ave,90650,California,CA,Norwalk,33.921378,-118.074834,https://www.realtor.com/realestateandhomes-detail/12109-Kalnor-Ave_Norwalk_CA_90650_M14892-99324
10622-Meadow-Rd_Norwalk_CA_90650_M13320-74313,$749000,for_sale,,"baths_consolidated: 2, type: single_family",10622 Meadow Rd,90650,California,CA,Norwalk,33.918575,-118.107094,https://www.realtor.com/realestateandhomes-detail/10622-Meadow-Rd_Norwalk_CA_90650_M13320-74313
14310-Alburtis-Ave_Norwalk_CA_90650_M12732-20017,$425000,for_sale,,"baths_consolidated: 2, type: townhomes, sub_type: townhouse, sold_date: 1988-08-12",14310 Alburtis Ave,90650,California,CA,Norwalk,33.901606,-118.08417,https://www.realtor.com/realestateandhomes-detail/14310-Alburtis-Ave_Norwalk_CA_90650_M12732-20017
11532-College-Dr_Norwalk_CA_90650_M29438-02358,$659000,for_sale,,"baths_consolidated: 1, type: single_family, sold_date: 2019-09-16",11532 College Dr,90650,California,CA,Norwalk,33.884957,-118.08841,https://www.realtor.com/realestateandhomes-detail/11532-College-Dr_Norwalk_CA_90650_M29438-02358
12618-Curtis-and-King-Rd_Norwalk_CA_90650_M22719-81851,$690000,for_sale,$29888,"baths_consolidated: 3.5, type: townhomes, sub_type: townhouse, sold_date: 2010-08-19",12618 Curtis and King Rd,90650,California,CA,Norwalk,33.916457,-118.107572,https://www.realtor.com/realestateandhomes-detail/12618-Curtis-and-King-Rd_Norwalk_CA_90650_M22719-81851
15407-Elmcroft-Ave_Norwalk_CA_90650_M15183-18121,$779900,for_sale,,"baths_consolidated: 2, type: single_family, sold_date: 1979-07-25",15407 Elmcroft Ave,90650,California,CA,Norwalk,33.890904,-118.095881,https://www.realtor.com/realestateandhomes-detail/15407-Elmcroft-Ave_Norwalk_CA_90650_M15183-18121
11630-Leeds-St_Norwalk_CA_90650_M14516-60722,$699000,for_sale,,"baths_consolidated: 1, type: single_family",11630 Leeds St,90650,California,CA,Norwalk,33.917759,-118.085078,https://www.realtor.com/realestateandhomes-detail/11630-Leeds-St_Norwalk_CA_90650_M14516-60722
12720-Kalnor-Ave_Norwalk_CA_90650_M24537-41916,$1350000,for_sale,,"baths_consolidated: 4, type: multi_family, sold_date: 1990-05-11",12720 Kalnor Ave,90650,California,CA,Norwalk,33.91499,-118.074155,https://www.realtor.com/realestateandhomes-detail/12720-Kalnor-Ave_Norwalk_CA_90650_M24537-41916
11525-Arlee-Ave_Norwalk_CA_90650_M11530-48725,$569800,for_sale,,"baths_consolidated: 1, type: single_family, sold_date: 1972-08-04",11525 Arlee Ave,90650,California,CA,Norwalk,33.925787,-118.081013,https://www.realtor.com/realestateandhomes-detail/11525-Arlee-Ave_Norwalk_CA_90650_M11530-48725
11544-Rosecrans-Ave_Norwalk_CA_90650_M13258-02262,$594000,for_sale,,"baths_consolidated: 1, type: single_family, sold_date: 2004-12-28",11544 Rosecrans Ave,90650,California,CA,Norwalk,33.901886,-118.087143,https://www.realtor.com/realestateandhomes-detail/11544-Rosecrans-Ave_Norwalk_CA_90650_M13258-02262
15035-Pioneer-Blvd_Norwalk_CA_90650_M15178-70930,$809888,for_sale,$10000,"baths_consolidated: 2, type: single_family, sold_date: 1976-01-20",15035 Pioneer Blvd,90650,California,CA,Norwalk,33.893994,-118.082825,https://www.realtor.com/realestateandhomes-detail/15035-Pioneer-Blvd_Norwalk_CA_90650_M15178-70930
13828-Longworth-Ave_Norwalk_CA_90650_M27694-96246,$665000,for_sale,,"baths_consolidated: 1, type: single_family, sold_date: 1977-11-21",13828 Longworth Ave,90650,California,CA,Norwalk,33.905556,-118.092818,https://www.realtor.com/realestateandhomes-detail/13828-Longworth-Ave_Norwalk_CA_90650_M27694-96246
12235-Pine-St-Unit-8_Norwalk_CA_90650_M28550-58850,$497500,for_sale,$19500,"baths_consolidated: 2.5, type: condos, sub_type: condo, sold_date: 2005-03-23",12235 Pine St Unit 8,90650,California,CA,Norwalk,33.903706,-118.071167,https://www.realtor.com/realestateandhomes-detail/12235-Pine-St-Unit-8_Norwalk_CA_90650_M28550-58850
12142-Hermes-St_Norwalk_CA_90650_M10670-01664,$719999,for_sale,,"baths_consolidated: 2, type: single_family, sold_date: 1974-03-13",12142 Hermes St,90650,California,CA,Norwalk,33.930729,-118.07394,https://www.realtor.com/realestateandhomes-detail/12142-Hermes-St_Norwalk_CA_90650_M10670-01664
12211-Beaty-Ave_Norwalk_CA_90650_M14620-22731,$860000,for_sale,,"baths_consolidated: 2, type: single_family, sold_date: 2014-03-19",12211 Beaty Ave,90650,California,CA,Norwalk,33.924272,-118.072051,https://www.realtor.com/realestateandhomes-detail/12211-Beaty-Ave_Norwalk_CA_90650_M14620-22731
